{"highStBanks":[{"category": "Bank", "name": "HSBC", "long": "-1.564126", "Easting": "428809", "Address": "LS1 1LD", "lat": "53.796305", "Northing": "433421"}, {"category": "Bank", "name": "HSBC", "long": "-1.564126", "Easting": "428809", "Address": "LS2 9HE", "lat": "53.796305", "Northing": "433421"}, {"category": "Bank", "name": "HSBC", "long": "-1.587692", "Easting": "427256", "Address": "LS12 2AA", "lat": "53.797359", "Northing": "433529"}, {"category": "Bank", "name": "HSBC", "long": "-1.537746", "Easting": "430523", "Address": "LS7 4NU", "lat": "53.828967", "Northing": "437066"}, {"category": "Bank", "name": "HSBC", "long": "-1.533728", "Easting": "430775", "Address": "LS17 6DN", "lat": "53.846002", "Northing": "438963"}, {"category": "Bank", "name": "HSBC", "long": "-1.450959", "Easting": "436255", "Address": "LS15 8EU", "lat": "53.806015", "Northing": "434553"}, {"category": "Bank", "name": "HSBC", "long": "-1.477883", "Easting": "434529", "Address": "LS26 0AN", "lat": "53.748404", "Northing": "428130"}, {"category": "Bank", "name": "HSBC", "long": "-1.601432", "Easting": "426383", "Address": "LS27 8DY", "lat": "53.746029", "Northing": "427813"}, {"category": "Bank", "name": "HSBC", "long": "-1.638739", "Easting": "423870", "Address": "LS18 4AR", "lat": "53.839057", "Northing": "438150"}, {"category": "Bank", "name": "HSBC", "long": "-1.662803", "Easting": "422309", "Address": "LS28 7DN", "lat": "53.796416", "Northing": "433398"}, {"category": "Bank", "name": "Lloyds", "long": "-1.618228", "Easting": "425248", "Address": "LS12 3AE", "lat": "53.792236", "Northing": "432948"}, {"category": "Bank", "name": "Lloyds", "long": "-1.527499", "Easting": "431234", "Address": "LS10 2AP", "lat": "53.779161", "Northing": "431529"}, {"category": "Bank", "name": "Lloyds", "long": "-1.450803", "Easting": "436265", "Address": "LS15 8ET", "lat": "53.806284", "Northing": "434583"}, {"category": "Bank", "name": "Lloyds", "long": "-1.50801", "Easting": "432496", "Address": "LS9 6AP", "lat": "53.808428", "Northing": "434794"}, {"category": "Bank", "name": "Lloyds", "long": "-1.641277", "Easting": "423704", "Address": "LS18 4RJ", "lat": "53.837249", "Northing": "437948"}, {"category": "Bank", "name": "Lloyds", "long": "-1.562687", "Easting": "428863", "Address": "LS17 6PY", "lat": "53.856498", "Northing": "440118"}, {"category": "Bank", "name": "Lloyds", "long": "-1.602321", "Easting": "426324", "Address": "LS27 9BZ", "lat": "53.746536", "Northing": "427869"}, {"category": "Bank", "name": "Lloyds", "long": "-1.540017", "Easting": "430395", "Address": "LS1 1NX", "lat": "53.799127", "Northing": "433745"}, {"category": "Bank", "name": "Lloyds", "long": "-1.491521", "Easting": "433576", "Address": "LS8 4BD", "lat": "53.816042", "Northing": "435648"}, {"category": "Bank", "name": "Lloyds", "long": "-1.540087", "Easting": "430390", "Address": "LS1 6PN", "lat": "53.79902", "Northing": "433733"}, {"category": "Bank", "name": "Lloyds", "long": "-1.38647", "Easting": "440384", "Address": "LS22 6LN", "lat": "53.928577", "Northing": "448224"}, {"category": "Bank", "name": "RBS", "long": "-1.547322", "Easting": "429914", "Address": "LS1 5QB", "lat": "53.798885", "Northing": "433715"}, {"category": "Bank", "name": "Barclays", "long": "-1.54545", "Easting": "430038", "Address": "LS1 5AA", "lat": "53.79797", "Northing": "433614"}, {"category": "Bank", "name": "Barclays", "long": "-1.550879", "Easting": "429680", "Address": "LS1 2NG", "lat": "53.798476", "Northing": "433668"}, {"category": "Bank", "name": "Barclays", "long": "-1.551496", "Easting": "429633", "Address": "LS2 9HG", "lat": "53.80761", "Northing": "434684"}, {"category": "Bank", "name": "Barclays", "long": "-1.544511", "Easting": "430114", "Address": "LS11 5EG", "lat": "53.778112", "Northing": "431405"}, {"category": "Bank", "name": "Barclays", "long": "-1.533284", "Easting": "430806", "Address": "LS17 6PY", "lat": "53.843529", "Northing": "438688"}, {"category": "Bank", "name": "Barclays", "long": "-1.451873", "Easting": "436195", "Address": "LS15 8DU", "lat": "53.805749", "Northing": "434523"}, {"category": "Bank", "name": "Barclays", "long": "-1.601567", "Easting": "426374", "Address": "LS27 8DX", "lat": "53.746156", "Northing": "427827"}, {"category": "Bank", "name": "Barclays", "long": "-1.639122", "Easting": "423845", "Address": "LS18 4AX", "lat": "53.838617", "Northing": "438101"}, {"category": "Bank", "name": "Barclays", "long": "-1.671399", "Easting": "421739", "Address": "LS28 6AR", "lat": "53.803756", "Northing": "434212"}, {"category": "Bank", "name": "Natwest", "long": "-1.546675", "Easting": "429957", "Address": "LS1 5HD", "lat": "53.798334", "Northing": "433654"}, {"category": "Bank", "name": "Natwest", "long": "-1.578084", "Easting": "427873", "Address": "LS6 3WA", "lat": "53.821305", "Northing": "436197"}, {"category": "Bank", "name": "Natwest", "long": "-1.534525", "Easting": "430737", "Address": "LS7 4TW", "lat": "53.826223", "Northing": "436762"}, {"category": "Bank", "name": "Natwest", "long": "-1.451989", "Easting": "436186", "Address": "LS15 8DJ", "lat": "53.807359", "Northing": "434702"}, {"category": "Bank", "name": "Santander", "long": "-1.542509", "Easting": "430232", "Address": "LS1 6AS", "lat": "53.797528", "Northing": "433566"}, {"category": "Bank", "name": "Santander", "long": "-1.552792", "Easting": "429547", "Address": "LS2 9JT", "lat": "53.808478", "Northing": "434780"}, {"category": "Bank", "name": "Nationwide", "long": "-1.548815", "Easting": "429815", "Address": "LS1 6HX", "lat": "53.800093", "Northing": "433849"}]}