{"mentalHealthOrgs":[{"building": "Marquis House", "Town": "Leeds", "name": "Addiction Dependency Solutions", "District": "", "Comments": "", "primary_service": "Substance Misuse", "long": "-1.536131", "County": "West Yorkshire", "Street": "Eastgate", "Postcode": "LS2 7RD", "HouseNo": "33", "address": "33 Eastgate  Leeds, LS2 7RD", "lat": "53.799058"}, {"building": "", "Town": "Wakefield", "name": "ADHD Support Group - West Yorkshire", "District": "Crofton", "Comments": "", "primary_service": "Mental Health Services", "long": "-1.422279", "County": "West Yorkshire", "Street": "Meadowfields Drive", "Postcode": "WF4 1JE", "HouseNo": "40", "address": "40 Meadowfields Drive Crofton Wakefield, WF4 1JE", "lat": "53.655067"}, {"building": "Micklethwaite House", "Town": "Leeds", "name": "Advocacy for Mental Health and Dementia", "District": "Cross Green", "Comments": "", "primary_service": "Advocacy", "long": "-1.520128", "County": "West Yorkshire", "Street": "Cross Green Lane", "Postcode": "LS9 0DG", "HouseNo": "70", "address": "70 Cross Green Lane Cross Green Leeds, LS9 0DG", "lat": "53.7881"}, {"building": "", "Town": "Leeds", "name": "Advocacy Support", "District": "", "Comments": "", "primary_service": "Advocacy", "long": "-1.516626", "County": "West Yorkshire", "Street": "Roundhay Road", "Postcode": "LS8 4HS", "HouseNo": "267", "address": "267 Roundhay Road  Leeds, LS8 4HS", "lat": "53.817155"}, {"building": "Bradbury Building", "Town": "Leeds", "name": "Age UK Leeds", "District": "", "Comments": "", "primary_service": "Older People's Services (General)", "long": "-1.542456", "County": "West Yorkshire", "Street": "Mark Lane", "Postcode": "LS2 8JA", "HouseNo": "", "address": " Mark Lane  Leeds, LS2 8JA", "lat": "53.79971"}, {"building": "", "Town": "Leeds", "name": "Akoben", "District": "Harehills", "Comments": "", "primary_service": "Counselling and Therapy Services", "long": "-1.51472", "County": "West Yorkshire", "Street": "Ashley Road", "Postcode": "LS9 7AB", "HouseNo": "11", "address": "11 Ashley Road Harehills Leeds, LS9 7AB", "lat": "53.809357"}, {"building": "", "Town": "Halifax", "name": "Alpha House Calderdale", "District": "", "Comments": "", "primary_service": "Counselling and Therapy Services", "long": "-1.877235", "County": "West Yorkshire", "Street": "St Augustine's Centre", "Postcode": "HX1 5PG", "HouseNo": "", "address": " St Augustine's Centre  Halifax, HX1 5PG", "lat": "53.725207"}, {"building": "Armley Grange", "Town": "Leeds", "name": "Alzheimer's Society", "District": "Armley", "Comments": "", "primary_service": "Dementia", "long": "-1.608861", "County": "West Yorkshire", "Street": "Armley Grange Drive", "Postcode": "LS12 3QH", "HouseNo": "", "address": " Armley Grange Drive Armley Leeds, LS12 3QH", "lat": "53.801636"}, {"building": "", "Town": "Leeds", "name": "Anchor - Larchfield Care Home", "District": "Hunset", "Comments": "", "primary_service": "Older People's Services (General)", "long": "-1.5305", "County": "", "Street": "Joseph Street", "Postcode": "LS10 2AD", "HouseNo": "17", "address": "17 Joseph Street Hunset Leeds, LS10 2AD", "lat": "53.781654"}, {"building": "", "Town": "Leeds", "name": "Anxiety Leeds", "District": "Whitkirk", "Comments": "", "primary_service": "Mental Health Services", "long": "-1.456537", "County": "", "Street": "Temple Lane", "Postcode": "LS15 0PH", "HouseNo": "1", "address": "1 Temple Lane Whitkirk Leeds, LS15 0PH", "lat": "53.795442"}, {"building": "Strawberry Lane Centre", "Town": "Leeds", "name": "Armley Counselling Service", "District": "Armley", "Comments": "", "primary_service": "Counselling and Therapy Services", "long": "-1.586451", "County": "West Yorkshire", "Street": "Strawberry Lane", "Postcode": "LS12 1SF", "HouseNo": "", "address": " Strawberry Lane Armley Leeds, LS12 1SF", "lat": "53.793813"}, {"building": "Bates Mill", "Town": "Huddersfield", "name": "Artists in Mind (AIM)", "District": "", "Comments": "", "primary_service": "Arts & Media", "long": "-1.782219", "County": "West Yorkshire", "Street": "Milford St", "Postcode": "HD1 3DX", "HouseNo": "", "address": " Milford St  Huddersfield, HD1 3DX", "lat": "53.64074"}, {"building": "", "Town": "Leeds", "name": "Artlink West Yorkshire", "District": "", "Comments": "", "primary_service": "Arts & Media", "long": "-1.56429", "County": "West Yorkshire", "Street": "Belle Vue Rd", "Postcode": "LS3 1HG", "HouseNo": "191", "address": "191 Belle Vue Rd  Leeds, LS3 1HG", "lat": "53.806323"}, {"building": "", "Town": "Leeds", "name": "Asian Family Counselling Service", "District": "", "Comments": "", "primary_service": "Family Services", "long": "-1.523725", "County": "West Yorkshire", "Street": "Roxholme Place", "Postcode": "LS7 4JQ", "HouseNo": "42", "address": "42 Roxholme Place  Leeds, LS7 4JQ", "lat": "53.824072"}, {"building": "", "Town": "London", "name": "Association for Post-natal Illness", "District": "Fulham", "Comments": "Helpline", "primary_service": "Mental Health Services", "long": "-0.20618", "County": "", "Street": "Dawes Road", "Postcode": "SW6 7EB", "HouseNo": "145", "address": "145 Dawes Road Fulham London, SW6 7EB", "lat": "51.480664"}, {"building": "", "Town": "Huddersfield", "name": "Balance-Work-Life Independent Ltd", "District": "Oakes", "Comments": "", "primary_service": "Counselling and Therapy Services", "long": "-1.817441", "County": "West Yorkshire", "Street": "Reinwood Road", "Postcode": "HD3 4DH", "HouseNo": "41", "address": "41 Reinwood Road Oakes Huddersfield, HD3 4DH", "lat": "53.651284"}, {"building": "The Manor House", "Town": "Leeds", "name": "Barca-Leeds", "District": "Bramley", "Comments": "", "primary_service": "Community Development", "long": "-1.62918", "County": "West Yorkshire", "Street": "Upper Town Street", "Postcode": "LS13 3JT", "HouseNo": "259", "address": "259 Upper Town Street Bramley Leeds, LS13 3JT", "lat": "53.812755"}, {"building": "", "Town": "Leeds", "name": "Barca-Leeds - Counselling & Psychotherapy Services", "District": "Bramley", "Comments": "", "primary_service": "Counselling and Therapy Services", "long": "-1.633241", "County": "West Yorkshire", "Street": "Upper Town Street", "Postcode": "LS13 3JT", "HouseNo": "275", "address": "275 Upper Town Street Bramley Leeds, LS13 3JT", "lat": "53.814186"}, {"building": "c/o Leeds Media Centre", "Town": "Leeds", "name": "Barnardo's - Willow Young Carers Service", "District": "Chapeltown", "Comments": "", "primary_service": "Carers Services", "long": "-1.535616", "County": "West Yorkshire", "Street": "Savile Mount", "Postcode": "LS7 3HZ", "HouseNo": "21", "address": "21 Savile Mount Chapeltown Leeds, LS7 3HZ", "lat": "53.812597"}, {"building": "", "Town": "Batley", "name": "Batley Self Help Depression Group", "District": "", "Comments": "", "primary_service": "Mental Health Services", "long": "-1.63091", "County": "West Yorkshire", "Street": "Commercial St", "Postcode": "WF17 5DS", "HouseNo": "90", "address": "90 Commercial St  Batley, WF17 5DS", "lat": "53.713351"}, {"building": "Hawthorn House", "Town": "Leeds", "name": "Bereavement, Loss, and Trauma Group", "District": "", "Comments": "", "primary_service": "Counselling and Therapy Services", "long": "-1.603829", "County": "West Yorkshire", "Street": "Wilfred Terrace", "Postcode": "LS12 4JX", "HouseNo": "", "address": " Wilfred Terrace  Leeds, LS12 4JX", "lat": "53.781293"}, {"building": "", "Town": "Dewsbury", "name": "Bethany House Healing Centre", "District": "Gawthorpe", "Comments": "", "primary_service": "Counselling and Therapy Services", "long": "-1.59605", "County": "West Yorkshire", "Street": "Chickenley Lane", "Postcode": "WF12 8QD", "HouseNo": "73A", "address": "73A Chickenley Lane Gawthorpe Dewsbury, WF12 8QD", "lat": "53.69051"}, {"building": "4th Floor, Gallery House", "Town": "Leeds", "name": "BHA Leeds Skyline", "District": "", "Comments": "", "primary_service": "Health", "long": "-1.547682", "County": "West Yorkshire", "Street": "The Headrow", "Postcode": "LS1 5RD", "HouseNo": "131", "address": "131 The Headrow  Leeds, LS1 5RD", "lat": "53.799291"}, {"building": "Chapeltown Enterprise Centre", "Town": "Leeds", "name": "Black Health Initiative (BHI)", "District": "", "Comments": "", "primary_service": "BME Communities Services", "long": "-1.532039", "County": "West Yorkshire", "Street": "Chapeltown Road", "Postcode": "LS7 3DX", "HouseNo": "231-235", "address": "231-235 Chapeltown Road  Leeds, LS7 3DX", "lat": "53.816155"}, {"building": "", "Town": "Bradford", "name": "Bradford & Airedale Mental Health Advocacy Group", "District": "", "Comments": "", "primary_service": "Mental Health Services", "long": "-1.760343", "County": "West Yorkshire", "Street": "Cornwall Place", "Postcode": "BD9 7JT", "HouseNo": "", "address": " Cornwall Place  Bradford, BD9 7JT", "lat": "53.802811"}, {"building": "", "Town": "Bradford", "name": "Bradford Counselling Services", "District": "", "Comments": "", "primary_service": "Counselling and Therapy Services", "long": "-1.757558", "County": "West Yorkshire", "Street": "Barry St", "Postcode": "BD1 2AW", "HouseNo": "24", "address": "24 Barry St  Bradford, BD1 2AW", "lat": "53.794671"}, {"building": "", "Town": "Keighley", "name": "Bradford Immigration and Asylum Seekers Support and Advice Network - BIASAN", "District": "Oakworth", "Comments": "", "primary_service": "Campaigning", "long": "-1.959942", "County": "West Yorkshire", "Street": "Denby Mount", "Postcode": "BD22 7QA", "HouseNo": "5", "address": "5 Denby Mount Oakworth Keighley, BD22 7QA", "lat": "53.843403"}, {"building": "Office F13", "Town": "Bradford", "name": "Bradford People First", "District": "", "Comments": "", "primary_service": "Mental Health Services", "long": "-1.762218", "County": "West Yorkshire", "Street": "Mayfield Centre", "Postcode": "BD5 9NP", "HouseNo": "", "address": " Mayfield Centre  Bradford, BD5 9NP", "lat": "53.77351"}, {"building": "c/o BCVS", "Town": "Bradford", "name": "Bradford Rape Crisis Group", "District": "", "Comments": "", "primary_service": "Counselling and Therapy Services", "long": "-1.75483", "County": "", "Street": "Sunbridge Road", "Postcode": "BD1 2AY", "HouseNo": "19-25", "address": "19-25 Sunbridge Road  Bradford, BD1 2AY", "lat": "53.793614"}, {"building": "", "Town": "Bradford", "name": "Bradford Resource Centre", "District": "", "Comments": "", "primary_service": "Infrastructure", "long": "-1.745611", "County": "West Yorkshire", "Street": "Chapel St", "Postcode": "BD1 5DT", "HouseNo": "17-21", "address": "17-21 Chapel St  Bradford, BD1 5DT", "lat": "53.79394"}, {"building": "The Mayfield Centre", "Town": "Bradford", "name": "Bradford Under Fives Association", "District": "", "Comments": "", "primary_service": "Children/Young People - Out Of School/Play", "long": "-1.762218", "County": "West Yorkshire", "Street": "Broadway Avenue", "Postcode": "BD5 9NP", "HouseNo": "", "address": " Broadway Avenue  Bradford, BD5 9NP", "lat": "53.77351"}, {"building": "", "Town": "Leeds", "name": "Brain Camp Ltd", "District": "", "Comments": "", "primary_service": "Mental Health Services", "long": "-1.487642", "County": "", "Street": "Fearnville Drive", "Postcode": "LS8 3DH", "HouseNo": "31", "address": "31 Fearnville Drive  Leeds, LS8 3DH", "lat": "53.819328"}, {"building": "Voluntary Action Calderdale", "Town": "Halifax", "name": "Calderdale Wellbeing", "District": "", "Comments": "", "primary_service": "Health", "long": "-1.866146", "County": "West Yorkshire", "Street": "Hall Street", "Postcode": "HX1 5AY", "HouseNo": "", "address": " Hall Street  Halifax, HX1 5AY", "lat": "53.723005"}, {"building": "", "Town": "Halifax", "name": "Calderdale WomenCentre", "District": "", "Comments": "", "primary_service": "Health", "long": "-1.862962", "County": "West Yorkshire", "Street": "Silver Street", "Postcode": "HX1 1JN", "HouseNo": "23", "address": "23 Silver Street  Halifax, HX1 1JN", "lat": "53.722719"}, {"building": "The Cardigan Centre", "Town": "Leeds", "name": "Cardigan Centre", "District": "", "Comments": "", "primary_service": "Community Services / Facilities", "long": "-1.574436", "County": "West Yorkshire", "Street": "Cardigan Road", "Postcode": "LS6 1LJ", "HouseNo": "145-149", "address": "145-149 Cardigan Road  Leeds, LS6 1LJ", "lat": "53.809617"}, {"building": "", "Town": "Leeds", "name": "Cardigan Centre - Youthpoint", "District": "Burley", "Comments": "", "primary_service": "Children/Young People - Youth Work", "long": "-1.574436", "County": "West Yorkshire", "Street": "Cardigan Road", "Postcode": "LS6 1LJ", "HouseNo": "145-149", "address": "145-149 Cardigan Road Burley Leeds, LS6 1LJ", "lat": "53.809617"}, {"building": "", "Town": "Leeds", "name": "Care & Repair Leeds - Leeds Directory", "District": "", "Comments": "", "primary_service": "Advice /Information Services", "long": "-1.514703", "County": "West Yorkshire", "Street": "Roundhay Road", "Postcode": "LS8 4HT", "HouseNo": "323", "address": "323 Roundhay Road  Leeds, LS8 4HT", "lat": "53.819268"}, {"building": "", "Town": "Leeds", "name": "Carers Leeds", "District": "", "Comments": "", "primary_service": "Carers Services", "long": "-1.540381", "County": "West Yorkshire", "Street": "The Headrow", "Postcode": "LS1 6PT", "HouseNo": "8-Jun", "address": "40701 The Headrow  Leeds, LS1 6PT", "lat": "53.799182"}, {"building": "Crag House Farm, Crag Hill", "Town": "Leeds", "name": "Caring For Life", "District": "Cookridge", "Comments": "", "primary_service": "Homelessness", "long": "-1.627912", "County": "West Yorkshire", "Street": "Otley Old Road", "Postcode": "LS16 7NH", "HouseNo": "", "address": " Otley Old Road Cookridge Leeds, LS16 7NH", "lat": "53.867273"}, {"building": "", "Town": "Wetherby", "name": "Carlshead Care Farm", "District": "Sicklinghall", "Comments": "", "primary_service": "Day Care Services", "long": "-1.45396", "County": "West Yorkshire", "Street": "Paddock House Lane", "Postcode": "LS22 4BN", "HouseNo": "", "address": " Paddock House Lane Sicklinghall Wetherby, LS22 4BN", "lat": "53.911557"}, {"building": "", "Town": "Leeds", "name": "Catholic Care", "District": "Headingley", "Comments": "", "primary_service": "Social & Community Care Services", "long": "-1.568209", "County": "West Yorkshire", "Street": "North Grange Road", "Postcode": "LS6 2BR", "HouseNo": "11", "address": "11 North Grange Road Headingley Leeds, LS6 2BR", "lat": "53.81887"}, {"building": "The Office", "Town": "Leeds", "name": "Catholic Care - Foundry Mill", "District": "", "Comments": "", "primary_service": "Housing & Related Support", "long": "-1.475469", "County": "", "Street": "Foundry Mill Mount", "Postcode": "LS14 6TL", "HouseNo": "4", "address": "4 Foundry Mill Mount  Leeds, LS14 6TL", "lat": "53.813189"}, {"building": "", "Town": "Leeds", "name": "Charlies Angel Centre", "District": "Middleton", "Comments": "", "primary_service": "Counselling and Therapy Services", "long": "-1.553411", "County": "West Yorkshire", "Street": "Sissons Road", "Postcode": "LS10 4JU", "HouseNo": "92", "address": "92 Sissons Road Middleton Leeds, LS10 4JU", "lat": "53.745004"}, {"building": "The Old Chapel", "Town": "Leeds", "name": "Cloth Cat Studios", "District": "Holbeck", "Comments": "", "primary_service": "Arts & Media", "long": "-1.560154", "County": "West Yorkshire", "Street": "Crossland Court", "Postcode": "LS11 9PR", "HouseNo": "1", "address": "1 Crossland Court Holbeck Leeds, LS11 9PR", "lat": "53.788489"}, {"building": "Unit 41, Carlisle Business Centre", "Town": "Bradford", "name": "Community Accord", "District": "", "Comments": "", "primary_service": "Counselling and Therapy Services", "long": "-1.771282", "County": "West Yorkshire", "Street": "Carlisle Road", "Postcode": "BD8 8BD", "HouseNo": "60", "address": "60 Carlisle Road  Bradford, BD8 8BD", "lat": "53.805983"}, {"building": "Head office", "Town": "Leeds", "name": "Community Links", "District": "", "Comments": "", "primary_service": "Mental Health Services", "long": "-1.460618", "County": "West Yorkshire", "Street": "Limewood Way", "Postcode": "LS14 1AB", "HouseNo": "3", "address": "3 Limewood Way  Leeds, LS14 1AB", "lat": "53.827163"}, {"building": "Malmarc House", "Town": "Leeds", "name": "Community Links - Aftercare", "District": "Beeston", "Comments": "", "primary_service": "Substance Misuse", "long": "-1.544639", "County": "West Yorkshire", "Street": "Dewsbury Road", "Postcode": "LS11 6XD", "HouseNo": "116", "address": "116 Dewsbury Road Beeston Leeds, LS11 6XD", "lat": "53.780989"}, {"building": "", "Town": "Leeds", "name": "Community Links - Alexander House", "District": "", "Comments": "", "primary_service": "Mental Health Services", "long": "-1.469952", "County": "", "Street": "Wetherby Road", "Postcode": "LS17 8NE", "HouseNo": "272", "address": "272 Wetherby Road  Leeds, LS17 8NE", "lat": "53.840142"}, {"building": "Bank House", "Town": "Leeds", "name": "Community Links - aspire", "District": "", "Comments": "", "primary_service": "Mental Health Services", "long": "-1.522675", "County": "West Yorkshire", "Street": "150 Roundhay Road", "Postcode": "LS8 5LA", "HouseNo": "Suite 1", "address": "Suite 1 150 Roundhay Road  Leeds, LS8 5LA", "lat": "53.811472"}, {"building": "", "Town": "Leeds", "name": "Community Links - Brigid House", "District": "", "Comments": "", "primary_service": "Housing & Related Support", "long": "-1.460654", "County": "", "Street": "Morritt Avenue", "Postcode": "LS15 7EP", "HouseNo": "26", "address": "26 Morritt Avenue  Leeds, LS15 7EP", "lat": "53.802604"}, {"building": "Suite 1, Bank House", "Town": "Leeds", "name": "Community Links - IAPT Young People", "District": "Harehills", "Comments": "", "primary_service": "Counselling and Therapy Services", "long": "-1.522675", "County": "West Yorkshire", "Street": "Roundhay Road", "Postcode": "LS8 5LJ", "HouseNo": "150", "address": "150 Roundhay Road Harehills Leeds, LS8 5LJ", "lat": "53.811472"}, {"building": "Maltings Close", "Town": "Leeds", "name": "Community Links - Maltings Close", "District": "", "Comments": "", "primary_service": "Housing & Related Support", "long": "-1.54145", "County": "", "Street": "Maltings Road", "Postcode": "LS11 5DT", "HouseNo": "27", "address": "27 Maltings Road  Leeds, LS11 5DT", "lat": "53.778891"}, {"building": "Jamaica House", "Town": "Leeds", "name": "Community Links - Mental Health Support Service", "District": "", "Comments": "", "primary_service": "Mental Health Services", "long": "-1.531573", "County": "", "Street": "Chapeltown Road", "Postcode": "LS7 3HA", "HouseNo": "277", "address": "277 Chapeltown Road  Leeds, LS7 3HA", "lat": "53.819526"}, {"building": "Oakwood Hall", "Town": "Leeds", "name": "Community Links - Oakwood Hall", "District": "Roundhay", "Comments": "", "primary_service": "Mental Health Services", "long": "-1.49732", "County": "West Yorkshire", "Street": "Oakwood Grange Lane", "Postcode": "LS8 2PF", "HouseNo": "", "address": " Oakwood Grange Lane Roundhay Leeds, LS8 2PF", "lat": "53.824868"}, {"building": "", "Town": "Leeds", "name": "Community Links - Octavia House", "District": "", "Comments": "", "primary_service": "Mental Health Services", "long": "-1.526775", "County": "", "Street": "East Grange Drive", "Postcode": "LS10 2EH", "HouseNo": "15", "address": "15 East Grange Drive  Leeds, LS10 2EH", "lat": "53.768531"}, {"building": "Concourse House", "Town": "Leeds", "name": "Community Links - Personality Disorder Accomodation Support", "District": "", "Comments": "", "primary_service": "Mental Health Services", "long": "-1.561367", "County": "West Yorkshire", "Street": "Sugar Mill Business Park, Oakhurst Avenue", "Postcode": "LS11 7DF", "HouseNo": "Unit 24, The Sugar Refinery", "address": "Unit 24, The Sugar Refinery Sugar Mill Business Park, Oakhurst Avenue  Leeds, LS11 7DF", "lat": "53.766706"}, {"building": "Bank House", "Town": "Leeds", "name": "Community Links - Positive Pathways", "District": "", "Comments": "", "primary_service": "Housing & Related Support", "long": "-1.522675", "County": "West Yorkshire", "Street": "Roundhay Road", "Postcode": "LS8 5LJ", "HouseNo": "150", "address": "150 Roundhay Road  Leeds, LS8 5LJ", "lat": "53.811472"}, {"building": "Rose Villa", "Town": "Leeds", "name": "Community Links - Rose Villa", "District": "Seacroft", "Comments": "", "primary_service": "Mental Health Services", "long": "-1.455403", "County": "", "Street": "York Road", "Postcode": "LS14 2AA", "HouseNo": "", "address": " York Road Seacroft Leeds, LS14 2AA", "lat": "53.82393"}, {"building": "", "Town": "Leeds", "name": "Community Links - Self Directed Support", "District": "", "Comments": "", "primary_service": "Social & Community Care Services", "long": "-1.460618", "County": "West Yorkshire", "Street": "Limewood Way", "Postcode": "LS14 1AB", "HouseNo": "3", "address": "3 Limewood Way  Leeds, LS14 1AB", "lat": "53.827163"}, {"building": "", "Town": "Leeds", "name": "Community Links - Training", "District": "", "Comments": "", "primary_service": "Education / Training", "long": "-1.460618", "County": "West Yorkshire", "Street": "Limewood Way", "Postcode": "LS14 1AB", "HouseNo": "3", "address": "3 Limewood Way  Leeds, LS14 1AB", "lat": "53.827163"}, {"building": "Leeds Centre for Integrated Living", "Town": "Leeds", "name": "Connect - the communication disability network", "District": "Armley", "Comments": "", "primary_service": "Counselling and Therapy Services", "long": "-1.608861", "County": "West Yorkshire", "Street": "Armley Grange Drive", "Postcode": "LS12 3QH", "HouseNo": "", "address": " Armley Grange Drive Armley Leeds, LS12 3QH", "lat": "53.801636"}, {"building": "Middleton Skills Centre", "Town": "Leeds", "name": "Connections Care", "District": "", "Comments": "", "primary_service": "Disabled People's Services (General)", "long": "-1.54785", "County": "", "Street": "Middleton Park Avenue", "Postcode": "LS10 4HY", "HouseNo": "110", "address": "110 Middleton Park Avenue  Leeds, LS10 4HY", "lat": "53.739977"}, {"building": "Stocks Hill Day Centre", "Town": "Leeds", "name": "Co-operative Cuisine", "District": "Armley", "Comments": "", "primary_service": "Mental Health Services", "long": "-1.586769", "County": "West Yorkshire", "Street": "Chapel Lane", "Postcode": "LS12 2DJ", "HouseNo": "", "address": " Chapel Lane Armley Leeds, LS12 2DJ", "lat": "53.797032"}, {"building": "Enterprise House", "Town": "Leeds", "name": "Creative Support", "District": "", "Comments": "", "primary_service": "Social & Community Care Services", "long": "-1.541595", "County": "", "Street": "Education Road", "Postcode": "LS7 2AH", "HouseNo": "Suite 12, McCarthy Business Centre", "address": "Suite 12, McCarthy Business Centre Education Road  Leeds, LS7 2AH", "lat": "53.812077"}, {"building": "", "Town": "Leeds", "name": "Creative Support: Creativities Courtyard", "District": "Horsforth", "Comments": "", "primary_service": "Social & Community Care Services", "long": "", "County": "West Yorkshire", "Street": "Town Street", "Postcode": "LS18 5BP", "HouseNo": "96", "address": "96 Town Street Horsforth Leeds, LS18 5BP", "lat": ""}, {"building": "Centenary House", "Town": "Leeds", "name": "Cruse Bereavement Care", "District": "", "Comments": "", "primary_service": "Counselling and Therapy Services", "long": "-1.538449", "County": "West Yorkshire", "Street": "59 North Street", "Postcode": "LS2 8AY", "HouseNo": "", "address": " 59 North Street  Leeds, LS2 8AY", "lat": "53.801461"}, {"building": "Oxford Place Centre", "Town": "Leeds", "name": "Cruse Bereavement Care", "District": "", "Comments": "", "primary_service": "Counselling and Therapy Services", "long": "-1.550459", "County": "West Yorkshire", "Street": "Oxford Place", "Postcode": "LS1 3AX", "HouseNo": "", "address": " Oxford Place  Leeds, LS1 3AX", "lat": "53.800276"}, {"building": "", "Town": "Leeds", "name": "Dayspring Counselling Centre", "District": "Garforth", "Comments": "", "primary_service": "Counselling and Therapy Services", "long": "-1.387997", "County": "West Yorkshire", "Street": "Main Street", "Postcode": "LS25 1AA", "HouseNo": "62c", "address": "62c Main Street Garforth Leeds, LS25 1AA", "lat": "53.794853"}, {"building": "Sunshine House", "Town": "Leeds", "name": "Design and Print United", "District": "", "Comments": "", "primary_service": "Mental Health Services", "long": "-1.598939", "County": "West Yorkshire", "Street": "Whingate Business Park", "Postcode": "LS12 3AT", "HouseNo": "", "address": " Whingate Business Park  Leeds, LS12 3AT", "lat": "53.795312"}, {"building": "Mabgate Mills", "Town": "Leeds", "name": "Developing Initiatives for Support in the Community (DISC)", "District": "", "Comments": "", "primary_service": "Employment", "long": "-1.52978", "County": "West Yorkshire", "Street": "Mabgate", "Postcode": "LS9 7DZ", "HouseNo": "4th Floor (Mill 1)", "address": "4th Floor (Mill 1) Mabgate  Leeds, LS9 7DZ", "lat": "53.802802"}, {"building": "Castleford Civic Centre", "Town": "Castleford", "name": "DIAL Wakefield", "District": "", "Comments": "", "primary_service": "Disabled People's Services (General)", "long": "-1.343121", "County": "West Yorkshire", "Street": "Ferrybridge Road", "Postcode": "WF10 4JH", "HouseNo": "", "address": " Ferrybridge Road  Castleford, WF10 4JH", "lat": "53.724921"}, {"building": "Stocks Hill Day Centre", "Town": "Leeds", "name": "Dosti", "District": "Armley", "Comments": "", "primary_service": "Mental Health Services", "long": "-1.586769", "County": "West Yorkshire", "Street": "Chapel Lane", "Postcode": "LS12 2DJ", "HouseNo": "", "address": " Chapel Lane Armley Leeds, LS12 2DJ", "lat": "53.797032"}, {"building": "Openhouse community centre", "Town": "Leeds", "name": "Ecommunity Links Ltd", "District": "Moortown", "Comments": "", "primary_service": "Transport", "long": "-1.544379", "County": "West Yorkshire", "Street": "Lingfield Drive", "Postcode": "LS17 7HF", "HouseNo": "79-81", "address": "79-81 Lingfield Drive Moortown Leeds, LS17 7HF", "lat": "53.849099"}, {"building": "The Hive", "Town": "Leeds", "name": "EFT Works Ltd", "District": "Beeston", "Comments": "", "primary_service": "Counselling and Therapy Services", "long": "-1.5531", "County": "West Yorkshire", "Street": "Hillside Beeston Road", "Postcode": "LS11 8ND", "HouseNo": "Tiger 11", "address": "Tiger 11 Hillside Beeston Road Beeston Leeds, LS11 8ND", "lat": "53.780975"}, {"building": "St Mary's Street", "Town": "Leeds", "name": "Emmaus Leeds", "District": "Lincoln Green", "Comments": "", "primary_service": "Homelessness", "long": "-1.529818", "County": "West Yorkshire", "Street": "St Mary's Street", "Postcode": "LS9 7DP", "HouseNo": "", "address": " St Mary's Street Lincoln Green Leeds, LS9 7DP", "lat": "53.799437"}, {"building": "Feel Good Factor", "Town": "Leeds", "name": "Feel Good Factor", "District": "Chapeltown", "Comments": "", "primary_service": "Health", "long": "-1.527742", "County": "West Yorkshire", "Street": "Louis Street", "Postcode": "LS7 4BP", "HouseNo": "53", "address": "53 Louis Street Chapeltown Leeds, LS7 4BP", "lat": "53.812759"}, {"building": "Tennant Hall", "Town": "Leeds", "name": "Foundation", "District": "", "Comments": "", "primary_service": "Housing & Related Support", "long": "-1.545963", "County": "West Yorkshire", "Street": "Blenheim Grove", "Postcode": "LS2 9ET", "HouseNo": "", "address": " Blenheim Grove  Leeds, LS2 9ET", "lat": "53.807679"}, {"building": "Roundhay Road Resource Centre", "Town": "Leeds", "name": "Freedom From Torture", "District": "", "Comments": "", "primary_service": "BME Communities Services", "long": "-1.517327", "County": "West Yorkshire", "Street": "Roundhay Road", "Postcode": "LS8 4HS", "HouseNo": "233-237", "address": "233-237 Roundhay Road  Leeds, LS8 4HS", "lat": "53.817005"}, {"building": "Oxford Chambers", "Town": "Leeds", "name": "Genesis Leeds", "District": "", "Comments": "", "primary_service": "Women", "long": "-1.55065", "County": "West Yorkshire", "Street": "Oxford Place", "Postcode": "LS1 3AU", "HouseNo": "", "address": " Oxford Place  Leeds, LS1 3AU", "lat": "53.800066"}, {"building": "", "Town": "Leeds", "name": "Getaway Girls", "District": "Harehills", "Comments": "", "primary_service": "Children/Young People - Youth Work", "long": "-1.520454", "County": "West Yorkshire", "Street": "Bayswater Grove", "Postcode": "LS8 5LN", "HouseNo": "67", "address": "67 Bayswater Grove Harehills Leeds, LS8 5LN", "lat": "53.811067"}, {"building": "GIPSIL Drop-In", "Town": "Leeds", "name": "Gipton Supported Independent Living (GIPSIL)", "District": "Gipton", "Comments": "", "primary_service": "Housing & Related Support", "long": "-1.491393", "County": "West Yorkshire", "Street": "Brander Street", "Postcode": "LS9 6QH", "HouseNo": "27-33", "address": "27-33 Brander Street Gipton Leeds, LS9 6QH", "lat": "53.806238"}, {"building": "Tenants Hall", "Town": "Leeds", "name": "Health for All (Leeds) Ltd", "District": "Middleton", "Comments": "", "primary_service": "Community Services / Facilities", "long": "-1.546482", "County": "West Yorkshire", "Street": "Acre Close", "Postcode": "LS10 4HX", "HouseNo": "", "address": " Acre Close Middleton Leeds, LS10 4HX", "lat": "53.743075"}, {"building": "Unit 4, Armley Park Court", "Town": "Leeds", "name": "Healthy Living Network Leeds", "District": "", "Comments": "", "primary_service": "Health", "long": "-1.589075", "County": "West Yorkshire", "Street": "Stanningley Road", "Postcode": "LS12 2AE", "HouseNo": "", "address": " Stanningley Road  Leeds, LS12 2AE", "lat": "53.798793"}, {"building": "", "Town": "Halifax", "name": "Heath Stroke Club", "District": "", "Comments": "", "primary_service": "Day Care Services", "long": "-1.866451", "County": "West Yorkshire", "Street": "Manor Drive", "Postcode": "HX3 0DN", "HouseNo": "", "address": " Manor Drive  Halifax, HX3 0DN", "lat": "53.711596"}, {"building": "Meridian House", "Town": "Leeds", "name": "Home Group (Stonham)", "District": "", "Comments": "", "primary_service": "Housing & Related Support", "long": "-1.569104", "County": "West Yorkshire", "Street": "Armley Road", "Postcode": "LS12 2EW", "HouseNo": "", "address": " Armley Road  Leeds, LS12 2EW", "lat": "53.796386"}, {"building": "Oxford Place Community Centre", "Town": "Leeds", "name": "Home-Start Leeds", "District": "", "Comments": "", "primary_service": "Family Services", "long": "-1.55065", "County": "West Yorkshire", "Street": "Oxford Place", "Postcode": "LS1 3AX", "HouseNo": "", "address": " Oxford Place  Leeds, LS1 3AX", "lat": "53.800066"}, {"building": "Bates Mill", "Town": "Huddersfield", "name": "Hoot", "District": "", "Comments": "", "primary_service": "Arts & Media", "long": "-1.783264", "County": "West Yorkshire", "Street": "Milford St", "Postcode": "HD1 3DX", "HouseNo": "", "address": " Milford St  Huddersfield, HD1 3DX", "lat": "53.641222"}, {"building": "", "Town": "Leeds", "name": "Hope Bereavement Support", "District": "", "Comments": "", "primary_service": "Counselling and Therapy Services", "long": "-1.491111", "County": "", "Street": "Beech Walk", "Postcode": "LS9 6QR", "HouseNo": "42", "address": "42 Beech Walk  Leeds, LS9 6QR", "lat": "53.810704"}, {"building": "", "Town": "Leeds", "name": "Hutchinson's Trust", "District": "", "Comments": "", "primary_service": "Mental Health Services", "long": "-1.611213", "County": "", "Street": "St Mary's Park Approach", "Postcode": "LS12 3UZ", "HouseNo": "30", "address": "30 St Mary's Park Approach  Leeds, LS12 3UZ", "lat": "53.79867"}, {"building": "Clarence House", "Town": "Leeds", "name": "Information for Mental Health", "District": "Horsforth", "Comments": "", "primary_service": "Mental Health Services", "long": "-1.639988", "County": "West Yorkshire", "Street": "Clarence Road", "Postcode": "LS18 4LB", "HouseNo": "11", "address": "11 Clarence Road Horsforth Leeds, LS18 4LB", "lat": "53.830178"}, {"building": "C/o HMP Leeds", "Town": "Leeds", "name": "Jigsaw Visitors Centre", "District": "Armley", "Comments": "", "primary_service": "Family Services", "long": "-1.576096", "County": "West Yorkshire", "Street": "Gloucester Terrace", "Postcode": "LS12 2TJ", "HouseNo": "2", "address": "2 Gloucester Terrace Armley Leeds, LS12 2TJ", "lat": "53.795548"}, {"building": "Joanna House", "Town": "Leeds", "name": "Joanna Project", "District": "", "Comments": "", "primary_service": "Women", "long": "-1.564522", "County": "West Yorkshire", "Street": "Sydenham Street", "Postcode": "LS11 9RR", "HouseNo": "1", "address": "1 Sydenham Street  Leeds, LS11 9RR", "lat": "53.788837"}, {"building": "Suite 41, Sugar Mill", "Town": "Leeds", "name": "KeyRing - Living Support Networks", "District": "", "Comments": "", "primary_service": "Housing & Related Support", "long": "-1.561367", "County": "", "Street": "Oakhurst Avenue", "Postcode": "LS11 7HL", "HouseNo": "", "address": " Oakhurst Avenue  Leeds, LS11 7HL", "lat": "53.766706"}, {"building": "", "Town": "Huddersfield", "name": "Kirklees Rape and Sexual Abuse Counselling Centre (KRASACC)", "District": "", "Comments": "PO box, helpline", "primary_service": "Counselling and Therapy Services", "long": "", "County": "West Yorkshire", "Street": "PO Box 230", "Postcode": "HD1 1AA", "HouseNo": "", "address": " PO Box 230  Huddersfield, HD1 1AA", "lat": ""}, {"building": "", "Town": "Leeds", "name": "Learning to Live Again (LTLA)", "District": "", "Comments": "", "primary_service": "Counselling and Therapy Services", "long": "-1.558196", "County": "", "Street": "Springfield Mount", "Postcode": "LS2 9NG", "HouseNo": "19", "address": "19 Springfield Mount  Leeds, LS2 9NG", "lat": "53.804695"}, {"building": "St Mary's Hospital", "Town": "Leeds", "name": "Leeds & York Partnerships NHS Foundation Trust - Assertive Outreach Team", "District": "", "Comments": "", "primary_service": "Mental Health Services", "long": "-1.611185", "County": "West Yorkshire", "Street": "Green Hill Road", "Postcode": "LS12 3QE", "HouseNo": "", "address": " Green Hill Road  Leeds, LS12 3QE", "lat": "53.801111"}, {"building": "Ebor Court", "Town": "Leeds", "name": "Leeds Asylum Seekers Support Network (LASSN)", "District": "", "Comments": "", "primary_service": "Befriending", "long": "-1.558022", "County": "West Yorkshire", "Street": "Westgate", "Postcode": "LS1 4ND", "HouseNo": "", "address": " Westgate  Leeds, LS1 4ND", "lat": "53.797774"}, {"building": "Bodmin Crescent", "Town": "Leeds", "name": "Leeds Autistic Group", "District": "", "Comments": "", "primary_service": "Mental Health Services", "long": "-1.556946", "County": "West Yorkshire", "Street": "Bodmin Crescent", "Postcode": "LS10 4NE", "HouseNo": "205", "address": "205 Bodmin Crescent  Leeds, LS10 4NE", "lat": "53.745884"}, {"building": "Oxford Place Centre", "Town": "Leeds", "name": "Leeds Bereavement Forum", "District": "", "Comments": "", "primary_service": "Advice /Information Services", "long": "-1.55065", "County": "West Yorkshire", "Street": "Oxford Place", "Postcode": "LS1 3AX", "HouseNo": "", "address": " Oxford Place  Leeds, LS1 3AX", "lat": "53.800066"}, {"building": "The Resource Centre", "Town": "Leeds", "name": "Leeds Bipolar UK", "District": "", "Comments": "", "primary_service": "Mental Health Services", "long": "-1.611185", "County": "", "Street": "Green Hill Road", "Postcode": "LS12 3QE", "HouseNo": "St Mary's Hospital", "address": "St Mary's Hospital Green Hill Road  Leeds, LS12 3QE", "lat": "53.801111"}, {"building": "", "Town": "Leeds", "name": "Leeds Black Elders Association", "District": "", "Comments": "", "primary_service": "Older People's Services (General)", "long": "-1.531509", "County": "", "Street": "Reginald Terrace", "Postcode": "LS7 3EZ", "HouseNo": "3", "address": "3 Reginald Terrace  Leeds, LS7 3EZ", "lat": "53.81743"}, {"building": "", "Town": "Leeds", "name": "Leeds CAB - Mental Health Team", "District": "", "Comments": "", "primary_service": "Mental Health Services", "long": "-1.537124", "County": "", "Street": "New York Street", "Postcode": "LS2 7DT", "HouseNo": "31", "address": "31 New York Street  Leeds, LS2 7DT", "lat": "53.796521"}, {"building": "Westminster Buildings", "Town": "Leeds", "name": "Leeds Citizens Advice Bureau (CAB)", "District": "", "Comments": "", "primary_service": "Advice /Information Services", "long": "-1.537124", "County": "West Yorkshire", "Street": "New York Street", "Postcode": "LS2 7DT", "HouseNo": "31", "address": "31 New York Street  Leeds, LS2 7DT", "lat": "53.796521"}, {"building": "", "Town": "Leeds", "name": "Leeds City Council - Mental Health Housing Support Team", "District": "", "Comments": "", "primary_service": "Mental Health Services", "long": "-1.604939", "County": "", "Street": "Spen Lane", "Postcode": "LS16 5EJ", "HouseNo": "144", "address": "144 Spen Lane  Leeds, LS16 5EJ", "lat": "53.829047"}, {"building": "Leeds Bridge House", "Town": "Leeds", "name": "Leeds Counselling", "District": "", "Comments": "", "primary_service": "Counselling and Therapy Services", "long": "-1.541177", "County": "West Yorkshire", "Street": "Hunslet Road", "Postcode": "LS10 1JN", "HouseNo": "", "address": " Hunslet Road  Leeds, LS10 1JN", "lat": "53.793028"}, {"building": "Arthington House", "Town": "Leeds", "name": "Leeds Federated Housing Association", "District": "", "Comments": "", "primary_service": "Housing & Related Support", "long": "-1.565747", "County": "West Yorkshire", "Street": "Westfield Road", "Postcode": "LS3 1DE", "HouseNo": "30", "address": "30 Westfield Road  Leeds, LS3 1DE", "lat": "53.803156"}, {"building": "", "Town": "Leeds", "name": "Leeds Housing Concern", "District": "Parkside Lane", "Comments": "", "primary_service": "Housing & Related Support", "long": "-1.54366", "County": "West Yorkshire", "Street": "Ashbrooke Business Park", "Postcode": "LS11 5SF", "HouseNo": "Unit 4", "address": "Unit 4 Ashbrooke Business Park Parkside Lane Leeds, LS11 5SF", "lat": "53.771242"}, {"building": "", "Town": "Leeds", "name": "Leeds Housing Concern - Carr Beck", "District": "", "Comments": "", "primary_service": "Mental Health Services", "long": "-1.539105", "County": "West Yorkshire", "Street": "Lingwell Grove", "Postcode": "LS10 4BS", "HouseNo": "32", "address": "32 Lingwell Grove  Leeds, LS10 4BS", "lat": "53.746606"}, {"building": "", "Town": "Leeds", "name": "Leeds Housing Concern - Flagship South", "District": "Beeston", "Comments": "", "primary_service": "Housing & Related Support", "long": "-1.545255", "County": "West Yorkshire", "Street": "Dewsbury Road", "Postcode": "LS11 6ER", "HouseNo": "263", "address": "263 Dewsbury Road Beeston Leeds, LS11 6ER", "lat": "53.775621"}, {"building": "Garforth House", "Town": "Leeds", "name": "Leeds Housing Concern - Men's Service", "District": "", "Comments": "", "primary_service": "Homelessness", "long": "-1.560923", "County": "West Yorkshire", "Street": "Domestic Street", "Postcode": "LS11 9SG", "HouseNo": "118", "address": "118 Domestic Street  Leeds, LS11 9SG", "lat": "53.786009"}, {"building": "", "Town": "Leeds", "name": "Leeds Housing Concern - Sustain", "District": "", "Comments": "", "primary_service": "Housing & Related Support", "long": "-1.547667", "County": "West Yorkshire", "Street": "Middleton Crescent", "Postcode": "LS11 6JU", "HouseNo": "6", "address": "6 Middleton Crescent  Leeds, LS11 6JU", "lat": "53.773918"}, {"building": "Oakdale House", "Town": "Leeds", "name": "Leeds Housing Concern - Women's Service", "District": "Meanwood", "Comments": "", "primary_service": "Housing & Related Support", "long": "-1.554494", "County": "West Yorkshire", "Street": "Meanwood Road", "Postcode": "LS7 2LP", "HouseNo": "396-398", "address": "396-398 Meanwood Road Meanwood Leeds, LS7 2LP", "lat": "53.819575"}, {"building": "Gemini Business Park", "Town": "Leeds", "name": "Leeds Irish Health and Homes", "District": "", "Comments": "", "primary_service": "Housing & Related Support", "long": "-1.53617", "County": "West Yorkshire", "Street": "Sheepscar Way", "Postcode": "LS7 3JB", "HouseNo": "Unit 5", "address": "Unit 5 Sheepscar Way  Leeds, LS7 3JB", "lat": "53.810716"}, {"building": "The Arnold and Marjorie Ziff Community Centre", "Town": "Leeds", "name": "Leeds Jewish Care Services", "District": "", "Comments": "", "primary_service": "Social & Community Care Services", "long": "-1.543201", "County": "West Yorkshire", "Street": "Stonegate Road", "Postcode": "LS17 6AZ", "HouseNo": "311", "address": "311 Stonegate Road  Leeds, LS17 6AZ", "lat": "53.844064"}, {"building": "Marjorie & Arnold Ziff Community Centre", "Town": "Leeds", "name": "Leeds Jewish Housing Association", "District": "Moortown", "Comments": "", "primary_service": "Housing & Related Support", "long": "-1.543201", "County": "West Yorkshire", "Street": "Stonegate Road", "Postcode": "LS17 6AZ", "HouseNo": "311", "address": "311 Stonegate Road Moortown Leeds, LS17 6AZ", "lat": "53.844064"}, {"building": "The Marjorie & Arnold Ziff Community Centre", "Town": "Leeds", "name": "Leeds Jewish Welfare Board", "District": "", "Comments": "", "primary_service": "Social & Community Care Services", "long": "-1.543201", "County": "West Yorkshire", "Street": "Stonegate Rd", "Postcode": "LS17 6AZ", "HouseNo": "311", "address": "311 Stonegate Rd  Leeds, LS17 6AZ", "lat": "53.844064"}, {"building": "Marjorie & Arnold Ziff Community Centre", "Town": "Leeds", "name": "Leeds Jewish Welfare Board - Neshama", "District": "Morrtown", "Comments": "", "primary_service": "Mental Health Services", "long": "-1.543201", "County": "West Yorkshire", "Street": "Stonegate Road", "Postcode": "LS17 6AZ", "HouseNo": "311", "address": "311 Stonegate Road Morrtown Leeds, LS17 6AZ", "lat": "53.844064"}, {"building": "Oxford Chambers", "Town": "Leeds", "name": "Leeds Life Care Centre", "District": "", "Comments": "", "primary_service": "Family Services", "long": "-1.55065", "County": "West Yorkshire", "Street": "Oxford Place", "Postcode": "LS1 3AX", "HouseNo": "", "address": " Oxford Place  Leeds, LS1 3AX", "lat": "53.800066"}, {"building": "Clarence House", "Town": "Leeds", "name": "Leeds Mind", "District": "Horsforth", "Comments": "", "primary_service": "Mental Health Services", "long": "-1.63743", "County": "West Yorkshire", "Street": "Clarence Road", "Postcode": "LS18 4LB", "HouseNo": "11", "address": "11 Clarence Road Horsforth Leeds, LS18 4LB", "lat": "53.831402"}, {"building": "Clarence House", "Town": "Leeds", "name": "Leeds Mind - Housing Service", "District": "Horsforth", "Comments": "", "primary_service": "Housing & Related Support", "long": "-1.63743", "County": "", "Street": "Clarence Road", "Postcode": "LS18 4LB", "HouseNo": "11", "address": "11 Clarence Road Horsforth Leeds, LS18 4LB", "lat": "53.831402"}, {"building": "", "Town": "Leeds", "name": "Leeds Mind - Inkwell", "District": "Chapel Allerton", "Comments": "", "primary_service": "Arts & Media", "long": "-1.541235", "County": "West Yorkshire", "Street": "Potternewton Lane", "Postcode": "LS7 3LW", "HouseNo": "31", "address": "31 Potternewton Lane Chapel Allerton Leeds, LS7 3LW", "lat": "53.82526"}, {"building": "Clarence House", "Town": "Leeds", "name": "Leeds Mind - Wellbeing", "District": "Horsforth", "Comments": "", "primary_service": "Mental Health Services", "long": "-1.63743", "County": "West Yorkshire", "Street": "Clarence Road", "Postcode": "LS18 4LB", "HouseNo": "11", "address": "11 Clarence Road Horsforth Leeds, LS18 4LB", "lat": "53.831402"}, {"building": "De Lacey House", "Town": "Leeds", "name": "Leeds Mind - WorkPlace Leeds", "District": "Kirkstall", "Comments": "", "primary_service": "Employment", "long": "-1.602155", "County": "West Yorkshire", "Street": "Abbey Road", "Postcode": "LS5 3HS", "HouseNo": "", "address": " Abbey Road Kirkstall Leeds, LS5 3HS", "lat": "53.817367"}, {"building": "", "Town": "Leeds", "name": "Leeds Pregnancy Crisis Centre", "District": "", "Comments": "", "primary_service": "Family Services", "long": "-1.558022", "County": "", "Street": "Skinner Street", "Postcode": "LS1 4ND", "HouseNo": "Ebor Court", "address": "Ebor Court Skinner Street  Leeds, LS1 4ND", "lat": "53.797774"}, {"building": "Dial House", "Town": "Leeds", "name": "Leeds Survivor Led Crisis Service", "District": "Halton", "Comments": "", "primary_service": "Mental Health Services", "long": "-1.468345", "County": "West Yorkshire", "Street": "Chapel St", "Postcode": "LS15 7RW", "HouseNo": "12", "address": "12 Chapel St Halton Leeds, LS15 7RW", "lat": "53.796975"}, {"building": "Dial House", "Town": "Leeds", "name": "Leeds Survivor Led Crisis Service", "District": "Halton", "Comments": "", "primary_service": "Mental Health Services", "long": "-1.468345", "County": "West Yorkshire", "Street": "Chapel St", "Postcode": "LS15 7RW", "HouseNo": "12", "address": "12 Chapel St Halton Leeds, LS15 7RW", "lat": "53.796975"}, {"building": "c/o St. Mary's Resource Centre, St. Mary's Hospital", "Town": "Leeds", "name": "Leeds West MDF Bipolar Group", "District": "", "Comments": "", "primary_service": "Mental Health Services", "long": "-1.611185", "County": "West Yorkshire", "Street": "Greenhill Rd", "Postcode": "LS12 3QE", "HouseNo": "", "address": " Greenhill Rd  Leeds, LS12 3QE", "lat": "53.801111"}, {"building": "", "Town": "Leeds", "name": "Leeds Women's Aid", "District": "", "Comments": "PO box", "primary_service": "Women", "long": "", "County": "West Yorkshire", "Street": "PO Box 826", "Postcode": "LS1 9PL", "HouseNo": "", "address": " PO Box 826  Leeds, LS1 9PL", "lat": ""}, {"building": "", "Town": "Leeds", "name": "Let's Face It", "District": "Halton", "Comments": "", "primary_service": "Counselling and Therapy Services", "long": "-1.464724", "County": "West Yorkshire", "Street": "Field End", "Postcode": "LS15 0QN", "HouseNo": "22", "address": "22 Field End Halton Leeds, LS15 0QN", "lat": "53.79582"}, {"building": "", "Town": "Otley", "name": "Lotus Workshops", "District": "", "Comments": "", "primary_service": "Counselling and Therapy Services", "long": "-1.711799", "County": "", "Street": "West Busk Lane", "Postcode": "LS21 3LW", "HouseNo": "40", "address": "40 West Busk Lane  Otley, LS21 3LW", "lat": "53.901433"}, {"building": "", "Town": "Leeds", "name": "Lovell Park Centre", "District": "", "Comments": "", "primary_service": "Mental Health Services", "long": "-1.536696", "County": "", "Street": "Wintoun Street", "Postcode": "LS7 1DA", "HouseNo": "", "address": " Wintoun Street  Leeds, LS7 1DA", "lat": "53.805693"}, {"building": "Unit 67, Batley Business Centre", "Town": "Wakefield", "name": "Making Space", "District": "Batley", "Comments": "", "primary_service": "Mental Health Services", "long": "-1.621819", "County": "West Yorkshire", "Street": "Technology Drive", "Postcode": "WF17 6ER", "HouseNo": "", "address": " Technology Drive Batley Wakefield, WF17 6ER", "lat": "53.707914"}, {"building": "Waterhouse Court", "Town": "Leeds", "name": "Making Space - Waterhouse Court", "District": "Hunslet", "Comments": "", "primary_service": "Housing & Related Support", "long": "-1.530864", "County": "West Yorkshire", "Street": "Joseph Street", "Postcode": "LS10 2AF", "HouseNo": "", "address": " Joseph Street Hunslet Leeds, LS10 2AF", "lat": "53.781259"}, {"building": "", "Town": "Hull", "name": "Mental Health Action Group", "District": "", "Comments": "", "primary_service": "Mental Health Services", "long": "-0.33706", "County": "West Yorkshire", "Street": "Caroline Street", "Postcode": "HU2 8DY", "HouseNo": "33-34", "address": "33-34 Caroline Street  Hull, HU2 8DY", "lat": "53.749693"}, {"building": "3", "Town": "Leeds", "name": "Mental Health Consortium", "District": "", "Comments": "", "primary_service": "Mental Health Services", "long": "-1.460618", "County": "", "Street": "Limewood Way", "Postcode": "LS14 1AB", "HouseNo": "", "address": " Limewood Way  Leeds, LS14 1AB", "lat": "53.827163"}, {"building": "Old Broadcasting House", "Town": "Leeds", "name": "Mental Wealth Foundation", "District": "", "Comments": "", "primary_service": "Mental Health Services", "long": "-1.548867", "County": "West Yorkshire", "Street": "Woodhouse Lane", "Postcode": "LS2 9EN", "HouseNo": "148", "address": "148 Woodhouse Lane  Leeds, LS2 9EN", "lat": "53.80566"}, {"building": "", "Town": "Bradford", "name": "MIND In Bradford", "District": "", "Comments": "", "primary_service": "Mental Health Services", "long": "-1.760178", "County": "West Yorkshire", "Street": "Cornwall Place", "Postcode": "BD8 7JT", "HouseNo": "", "address": " Cornwall Place  Bradford, BD8 7JT", "lat": "53.802798"}, {"building": "", "Town": "Leeds", "name": "Moor Allerton Elderly Care", "District": "Moortown", "Comments": "", "primary_service": "Older People's Services (General)", "long": "-1.557926", "County": "West Yorkshire", "Street": "Cranmer Bank", "Postcode": "LS17 5JD", "HouseNo": "57", "address": "57 Cranmer Bank Moortown Leeds, LS17 5JD", "lat": "53.847424"}, {"building": "", "Town": "Leeds", "name": "Moving on Project", "District": "", "Comments": "", "primary_service": "Mental Health Services", "long": "-1.602155", "County": "", "Street": "Abbey Road", "Postcode": "LS5 3HS", "HouseNo": "", "address": " Abbey Road  Leeds, LS5 3HS", "lat": "53.817367"}, {"building": "Marquis House", "Town": "Leeds", "name": "Multiple Choice", "District": "", "Comments": "", "primary_service": "Substance Misuse", "long": "-1.536131", "County": "West Yorkshire", "Street": "Eastgate", "Postcode": "LS2 7RD", "HouseNo": "33", "address": "33 Eastgate  Leeds, LS2 7RD", "lat": "53.799058"}, {"building": "Armley Leisure Centre", "Town": "Leeds", "name": "National Ankylosing Spondylitis Society - Leeds Branch", "District": "Armley", "Comments": "", "primary_service": "Counselling and Therapy Services", "long": "-1.592404", "County": "West Yorkshire", "Street": "", "Postcode": "LS12 3HB", "HouseNo": "", "address": "  Armley Leeds, LS12 3HB", "lat": "53.795502"}, {"building": "", "Town": "Bradford", "name": "Naye Subah Project", "District": "Russell St", "Comments": "", "primary_service": "Mental Health Services", "long": "-1.760633", "County": "West Yorkshire", "Street": "Russell St", "Postcode": "BD5 0JB", "HouseNo": "", "address": " Russell St Russell St Bradford, BD5 0JB", "lat": "53.787696"}, {"building": "", "Town": "Leeds", "name": "NET (Neighbourhood Elders Team) Garforth", "District": "Garforth", "Comments": "", "primary_service": "Older People's Services (General)", "long": "-1.37002", "County": "West Yorkshire", "Street": "Dover Street", "Postcode": "LS25 2LP", "HouseNo": "", "address": " Dover Street Garforth Leeds, LS25 2LP", "lat": "53.79342"}, {"building": "", "Town": "Leeds", "name": "Oblong", "District": "", "Comments": "", "primary_service": "Community Development", "long": "-1.555597", "County": "West Yorkshire", "Street": "Woodhouse Street", "Postcode": "LS6 2NY", "HouseNo": "197", "address": "197 Woodhouse Street  Leeds, LS6 2NY", "lat": "53.814164"}, {"building": "Oxford Place Church Centre", "Town": "Leeds", "name": "Person to Person Listening Service", "District": "", "Comments": "", "primary_service": "Advice /Information Services", "long": "-1.55065", "County": "West Yorkshire", "Street": "Oxford Place", "Postcode": "LS1 3AX", "HouseNo": "", "address": " Oxford Place  Leeds, LS1 3AX", "lat": "53.800066"}, {"building": "Oxford Chambers", "Town": "Leeds", "name": "Phoenix Health and Wellbeing", "District": "", "Comments": "", "primary_service": "Counselling and Therapy Services", "long": "-1.55065", "County": "West Yorkshire", "Street": "Oxford Place", "Postcode": "LS1 3AX", "HouseNo": "", "address": " Oxford Place  Leeds, LS1 3AX", "lat": "53.800066"}, {"building": "c/o Day and Evening Support Team", "Town": "Leeds", "name": "Physical Activity and Mental Health Project", "District": "", "Comments": "", "primary_service": "Mental Health Services", "long": "-1.528886", "County": "West Yorkshire", "Street": "Roundhay Road", "Postcode": "LS7 4AA", "HouseNo": "79", "address": "79 Roundhay Road  Leeds, LS7 4AA", "lat": "53.809853"}, {"building": "Cottingley Primary Academy", "Town": "Leeds", "name": "Place2Be", "District": "", "Comments": "", "primary_service": "Counselling and Therapy Services", "long": "-1.584211", "County": "", "Street": "Dulverton Grove", "Postcode": "LS11 0HU", "HouseNo": "", "address": " Dulverton Grove  Leeds, LS11 0HU", "lat": "53.768639"}, {"building": "Units 13/14, Chapeltown Enterprise Centre", "Town": "Leeds", "name": "Positive Action For Refugees and Asylum Seekers (PAFRAS)", "District": "Chapeltown", "Comments": "", "primary_service": "Poverty / Low Income", "long": "-1.532039", "County": "West Yorkshire", "Street": "Chapeltown Road", "Postcode": "LS7 3DX", "HouseNo": "231-235", "address": "231-235 Chapeltown Road Chapeltown Leeds, LS7 3DX", "lat": "53.816155"}, {"building": "Bridgefield Mills", "Town": "Elland", "name": "Project COLT", "District": "", "Comments": "", "primary_service": "Education / Training", "long": "-1.840575", "County": "West Yorkshire", "Street": "Elland Bridge", "Postcode": "HX5 0SG", "HouseNo": "", "address": " Elland Bridge  Elland, HX5 0SG", "lat": "53.688127"}, {"building": "Unit 6", "Town": "Leeds", "name": "REAP Therapeutic Counselling Service", "District": "", "Comments": "", "primary_service": "Counselling and Therapy Services", "long": "-1.516965", "County": "West Yorkshire", "Street": "Harehills Rd", "Postcode": "LS8 5HS", "HouseNo": "", "address": " Harehills Rd  Leeds, LS8 5HS", "lat": "53.81277"}, {"building": "7th Floor, City House", "Town": "Bradford", "name": "Relate Bradford", "District": "", "Comments": "", "primary_service": "Counselling and Therapy Services", "long": "-1.752606", "County": "West Yorkshire", "Street": "Cheapside", "Postcode": "BD1 4HR", "HouseNo": "21", "address": "21 Cheapside  Bradford, BD1 4HR", "lat": "53.795493"}, {"building": "Oxford Chambers", "Town": "Leeds", "name": "Relate Mid-Yorkshire", "District": "", "Comments": "", "primary_service": "Counselling and Therapy Services", "long": "-1.55065", "County": "West Yorkshire", "Street": "Oxford Place", "Postcode": "LS1 3AX", "HouseNo": "", "address": " Oxford Place  Leeds, LS1 3AX", "lat": "53.800066"}, {"building": "", "Town": "Leeds", "name": "re'new", "District": "", "Comments": "", "primary_service": "Regeneration", "long": "-1.533307", "County": "", "Street": "Regent Street", "Postcode": "LS2 7QN", "HouseNo": "34", "address": "34 Regent Street  Leeds, LS2 7QN", "lat": "53.803146"}, {"building": "Archway", "Town": "Leeds", "name": "re'new - Archway Counselling Service", "District": "Harehills", "Comments": "", "primary_service": "Counselling and Therapy Services", "long": "-1.524762", "County": "", "Street": "Roundhay Road", "Postcode": "LS8 5AQ", "HouseNo": "95", "address": "95 Roundhay Road Harehills Leeds, LS8 5AQ", "lat": "53.811238"}, {"building": "Suite 1A, Gledhow Mount Mansion", "Town": "Leeds", "name": "Restore 7", "District": "", "Comments": "", "primary_service": "Counselling and Therapy Services", "long": "-1.525821", "County": "", "Street": "Roxholme Grove", "Postcode": "LS7 4JJ", "HouseNo": "32", "address": "32 Roxholme Grove  Leeds, LS7 4JJ", "lat": "53.823384"}, {"building": "1st Floor, International House", "Town": "Wakefield", "name": "Rethink Mental Illness", "District": "", "Comments": "", "primary_service": "Mental Health Services", "long": "-1.540617", "County": "", "Street": "Trinity Business Park", "Postcode": "WF2 8EF", "HouseNo": "", "address": " Trinity Business Park  Wakefield, WF2 8EF", "lat": "53.678769"}, {"building": "", "Town": "Huddersfield", "name": "Richmond Fellowship", "District": "", "Comments": "", "primary_service": "Mental Health Services", "long": "-1.761938", "County": "West Yorkshire", "Street": "Queens Square (Leeds Road)", "Postcode": "HD2 1XN", "HouseNo": "21-22", "address": "21-22 Queens Square (Leeds Road)  Huddersfield, HD2 1XN", "lat": "53.659244"}, {"building": "Headingley Community Centre", "Town": "Leeds", "name": "Right Choices Project", "District": "Headingley", "Comments": "", "primary_service": "Education / Training", "long": "-1.578238", "County": "West Yorkshire", "Street": "North Lane", "Postcode": "LS6 3HN", "HouseNo": "", "address": " North Lane Headingley Leeds, LS6 3HN", "lat": "53.820451"}, {"building": "St. James's Hospital", "Town": "Leeds", "name": "Robert Ogden Macmillan Centre", "District": "", "Comments": "", "primary_service": "Health", "long": "-1.521211", "County": "West Yorkshire", "Street": "Beckett Street", "Postcode": "LS9 7TF", "HouseNo": "", "address": " Beckett Street  Leeds, LS9 7TF", "lat": "53.807005"}, {"building": "", "Town": "Keighley", "name": "Roshni Ghar Project", "District": "", "Comments": "", "primary_service": "Mental Health Services", "long": "-1.910456", "County": "West Yorkshire", "Street": "Scott Street", "Postcode": "BD21 2JH", "HouseNo": "13", "address": "13 Scott Street  Keighley, BD21 2JH", "lat": "53.867312"}, {"building": "", "Town": "Leeds", "name": "Samaritans Leeds", "District": "", "Comments": "", "primary_service": "Mental Health Services", "long": "-1.560426", "County": "West Yorkshire", "Street": "Clarendon Road", "Postcode": "LS2 9LY", "HouseNo": "93", "address": "93 Clarendon Road  Leeds, LS2 9LY", "lat": "53.806187"}, {"building": "", "Town": "Halifax", "name": "Samaritans of Halifax and Calderdale", "District": "", "Comments": "", "primary_service": "Telephone Helpline", "long": "-1.86556", "County": "West Yorkshire", "Street": "Hopwood Lane", "Postcode": "HX1 5HW", "HouseNo": "8", "address": "8 Hopwood Lane  Halifax, HX1 5HW", "lat": "53.721557"}, {"building": "Richard Carrgomm House", "Town": "Leeds", "name": "Sanctuary Carrgomm", "District": "Kirkstall", "Comments": "", "primary_service": "Disabled People's Services (General)", "long": "-1.599797", "County": "West Yorkshire", "Street": "Commercial Road", "Postcode": "LS5 3AT", "HouseNo": "77", "address": "77 Commercial Road Kirkstall Leeds, LS5 3AT", "lat": "53.814297"}, {"building": "", "Town": "Leeds", "name": "Shantona Women's Centre", "District": "Harehills", "Comments": "", "primary_service": "Women", "long": "-1.519789", "County": "", "Street": "Shepherds Lane", "Postcode": "LS8 5AW", "HouseNo": "", "address": " Shepherds Lane Harehills Leeds, LS8 5AW", "lat": "53.815349"}, {"building": "", "Town": "Leeds", "name": "Sign Health", "District": "Leicester Place", "Comments": "", "primary_service": "Disabled People's Services (General)", "long": "-1.547085", "County": "", "Street": "Constance Way", "Postcode": "LS7 1HX", "HouseNo": "2", "address": "2 Constance Way Leicester Place Leeds, LS7 1HX", "lat": "53.809688"}, {"building": "", "Town": "Leeds", "name": "Skippko", "District": "Croydon Stree", "Comments": "", "primary_service": "Arts & Media", "long": "-1.566004", "County": "West Yorkshire", "Street": "Barkston House", "Postcode": "LS11 9RT", "HouseNo": "42", "address": "42 Barkston House Croydon Stree Leeds, LS11 9RT", "lat": "53.787863"}, {"building": "Suites 2 & 3 Bank House", "Town": "Leeds", "name": "Solace", "District": "", "Comments": "", "primary_service": "Advocacy", "long": "-1.522675", "County": "West Yorkshire", "Street": "Roundhay Road", "Postcode": "LS8 5LJ", "HouseNo": "150", "address": "150 Roundhay Road  Leeds, LS8 5LJ", "lat": "53.811472"}, {"building": "Leeds Media Centre", "Town": "Leeds", "name": "Space2", "District": "Chapeltown", "Comments": "", "primary_service": "Community Development", "long": "-1.535616", "County": "West Yorkshire", "Street": "Savile Mount", "Postcode": "LS7 3HZ", "HouseNo": "21", "address": "21 Savile Mount Chapeltown Leeds, LS7 3HZ", "lat": "53.812597"}, {"building": "", "Town": "Leeds", "name": "St Anne's Community Services", "District": "", "Comments": "", "primary_service": "Social & Community Care Services", "long": "-1.553591", "County": "West Yorkshire", "Street": "St Mark's Avenue", "Postcode": "LS2 9BN", "HouseNo": "6", "address": "6 St Mark's Avenue  Leeds, LS2 9BN", "lat": "53.81036"}, {"building": "", "Town": "Leeds", "name": "St Anne's Community Services - Bismark Court", "District": "", "Comments": "", "primary_service": "Housing & Related Support", "long": "-1.548582", "County": "", "Street": "Bismark Court", "Postcode": "LS11 6TL", "HouseNo": "1", "address": "1 Bismark Court  Leeds, LS11 6TL", "lat": "53.77959"}, {"building": "", "Town": "Leeds", "name": "St Anne's Community Services - Dual Diagnosis Project", "District": "", "Comments": "", "primary_service": "Substance Misuse", "long": "-1.553591", "County": "West Yorkshire", "Street": "St Marks Avenue", "Postcode": "LS2 9BN", "HouseNo": "6", "address": "6 St Marks Avenue  Leeds, LS2 9BN", "lat": "53.81036"}, {"building": "", "Town": "Leeds", "name": "St Anne's Community Services - Hartwell Road", "District": "Woodhouse", "Comments": "", "primary_service": "Housing & Related Support", "long": "-1.569735", "County": "West Yorkshire", "Street": "Hartwell Road", "Postcode": "LS6 1PE", "HouseNo": "1", "address": "1 Hartwell Road Woodhouse Leeds, LS6 1PE", "lat": "53.80747"}, {"building": "", "Town": "Leeds", "name": "St Anne's Community Services - Holdforth Court", "District": "", "Comments": "", "primary_service": "Housing & Related Support", "long": "-1.532824", "County": "", "Street": "Brussels Street", "Postcode": "LS9 8AT", "HouseNo": "", "address": " Brussels Street  Leeds, LS9 8AT", "lat": "53.796097"}, {"building": "126", "Town": "Leeds", "name": "St Anne's Community Services - Housing 1", "District": "", "Comments": "", "primary_service": "Housing & Related Support", "long": "-1.563774", "County": "West Yorkshire", "Street": "Belle Vue Road", "Postcode": "LS3 1HF", "HouseNo": "", "address": " Belle Vue Road  Leeds, LS3 1HF", "lat": "53.806984"}, {"building": "243", "Town": "Leeds", "name": "St Anne's Community Services - Housing 2", "District": "Hyde Park", "Comments": "", "primary_service": "Housing & Related Support", "long": "-1.56307", "County": "West Yorkshire", "Street": "Hyde Park Road", "Postcode": "LS6 1AG", "HouseNo": "", "address": " Hyde Park Road Hyde Park Leeds, LS6 1AG", "lat": "53.813388"}, {"building": "The Office", "Town": "Leeds", "name": "St Anne's Community Services - Housing 3", "District": "", "Comments": "", "primary_service": "Housing & Related Support", "long": "-1.517632", "County": "West Yorkshire", "Street": "Easy Road", "Postcode": "LS9 8QX", "HouseNo": "Simmons Court", "address": "Simmons Court Easy Road  Leeds, LS9 8QX", "lat": "53.791457"}, {"building": "", "Town": "Leeds", "name": "St Anne's Community Services - Housing 4", "District": "Beeston", "Comments": "", "primary_service": "Housing & Related Support", "long": "-1.548582", "County": "West Yorkshire", "Street": "Bismark Court", "Postcode": "LS11 6TL", "HouseNo": "1", "address": "1 Bismark Court Beeston Leeds, LS11 6TL", "lat": "53.77959"}, {"building": "", "Town": "Leeds", "name": "St George's Crypt", "District": "", "Comments": "", "primary_service": "Homelessness", "long": "-1.552859", "County": "West Yorkshire", "Street": "Great George Street", "Postcode": "LS1 3BR", "HouseNo": "", "address": " Great George Street  Leeds, LS1 3BR", "lat": "53.801233"}, {"building": "", "Town": "Leeds", "name": "St Vincent's Support Centre", "District": "", "Comments": "", "primary_service": "Poverty / Low Income", "long": "-1.521632", "County": "West Yorkshire", "Street": "York Road", "Postcode": "LS9 9AA", "HouseNo": "82", "address": "82 York Road  Leeds, LS9 9AA", "lat": "53.797716"}, {"building": "Crossgates Learning Centre, Leeds City College, Arndale House", "Town": "Leeds", "name": "Stepping Out Programme", "District": "Cross Gates", "Comments": "", "primary_service": "Mental Health Services", "long": "-1.452226", "County": "West Yorkshire", "Street": "Station Road", "Postcode": "LS15 8EU", "HouseNo": "", "address": " Station Road Cross Gates Leeds, LS15 8EU", "lat": "53.806214"}, {"building": "Ground Floor, Stockdale House", "Town": "Leeds", "name": "Stop Hate UK", "District": "", "Comments": "", "primary_service": "Crime / Community Safety", "long": "-1.568352", "County": "", "Street": "Headingley Office Park", "Postcode": "LS6 1PF", "HouseNo": "26", "address": "26 Headingley Office Park  Leeds, LS6 1PF", "lat": "53.814898"}, {"building": "University of Leeds", "Town": "Leeds", "name": "Student Counselling Centre", "District": "", "Comments": "", "primary_service": "Counselling and Therapy Services", "long": "-1.558494", "County": "West Yorkshire", "Street": "Clarendon Place", "Postcode": "LS2 9JY", "HouseNo": "19", "address": "19 Clarendon Place  Leeds, LS2 9JY", "lat": "53.806867"}, {"building": "L&DRC, Tally Ho!", "Town": "Birmingham", "name": "Support After Murder and Manslaughter", "District": "Egbaston", "Comments": "", "primary_service": "Counselling and Therapy Services", "long": "-1.907338", "County": "", "Street": "Pershore Road", "Postcode": "B5 7RN", "HouseNo": "", "address": " Pershore Road Egbaston Birmingham, B5 7RN", "lat": "52.45381"}, {"building": "", "Town": "Leeds", "name": "Support After Rape and Sexual Violence Leeds (SARSVL)", "District": "", "Comments": "PO box. It's a hotline so no physical address.", "primary_service": "Domestic Abuse /Sexual Abuse", "long": "-1.549725", "County": "West Yorkshire", "Street": "PO Box 827", "Postcode": "LS1 9PN", "HouseNo": "", "address": " PO Box 827  Leeds, LS1 9PN", "lat": "53.796105"}, {"building": "", "Town": "Sheffield", "name": "Support Arts Gardening Education (SAGE)", "District": "", "Comments": "", "primary_service": "Mental Health Services", "long": "-1.465826", "County": "", "Street": "Minna Road", "Postcode": "S3 9AZ", "HouseNo": "30", "address": "30 Minna Road  Sheffield, S3 9AZ", "lat": "53.398259"}, {"building": "Swarcliffe Baptist Church", "Town": "Leeds", "name": "Swarcliffe Baptist Church", "District": "", "Comments": "church", "primary_service": "Faith / Religion", "long": "-1.450513", "County": "West Yorkshire", "Street": "Swarcliffe Drive", "Postcode": "LS14 5AW", "HouseNo": "", "address": " Swarcliffe Drive  Leeds, LS14 5AW", "lat": "53.817159"}, {"building": "The Gateway West", "Town": "Leeds", "name": "The Haven", "District": "", "Comments": "", "primary_service": "Counselling and Therapy Services", "long": "-1.532916", "County": "West Yorkshire", "Street": "East Street", "Postcode": "LS9 8DA", "HouseNo": "Units 4 & 5", "address": "Units 4 & 5 East Street  Leeds, LS9 8DA", "lat": "53.794068"}, {"building": "9 Wragley House", "Town": "Hebden Bridge", "name": "The Hebden Therapy Centre CIC", "District": "", "Comments": "", "primary_service": "Counselling and Therapy Services", "long": "-2.012395", "County": "West Yorkshire", "Street": "Valley Road", "Postcode": "HX7 7BN", "HouseNo": "", "address": " Valley Road  Hebden Bridge, HX7 7BN", "lat": "53.742835"}, {"building": "", "Town": "Leeds", "name": "The Market Place", "District": "", "Comments": "", "primary_service": "Advice /Information Services", "long": "-1.539709", "County": "", "Street": "Kirkgate", "Postcode": "LS2 7DJ", "HouseNo": "c/o St Peter?s House", "address": "c/o St Peter?s House Kirkgate  Leeds, LS2 7DJ", "lat": "53.797184"}, {"building": "2nd Floor, Standard House", "Town": "Huddersfield", "name": "The Nerve Centre Kirklees", "District": "", "Comments": "", "primary_service": "Mental Health Services", "long": "-1.785427", "County": "West Yorkshire", "Street": "Half Moon St", "Postcode": "HD1 2JF", "HouseNo": "", "address": " Half Moon St  Huddersfield, HD1 2JF", "lat": "53.646399"}, {"building": "", "Town": "", "name": "Time Out Rothwell", "District": "", "Comments": "church", "primary_service": "Counselling and Therapy Services", "long": "-1.484058", "County": "", "Street": "", "Postcode": "n/a", "HouseNo": "", "address": "   , n/a", "lat": "53.754167"}, {"building": "", "Town": "Leeds", "name": "Together Women Project", "District": "", "Comments": "", "primary_service": "Women", "long": "-1.551028", "County": "West Yorkshire", "Street": "Park Square East", "Postcode": "LS1 2LF", "HouseNo": "13", "address": "13 Park Square East  Leeds, LS1 2LF", "lat": "53.798754"}, {"building": "", "Town": "Leeds", "name": "Touchstone", "District": "Beeston", "Comments": "", "primary_service": "Mental Health Services", "long": "-1.547598", "County": "West Yorkshire", "Street": "Middleton Crescent", "Postcode": "LS11 6JU", "HouseNo": "4-Feb", "address": "40577 Middleton Crescent Beeston Leeds, LS11 6JU", "lat": "53.773894"}, {"building": "", "Town": "Leeds", "name": "Touchstone - Community Development Service", "District": "", "Comments": "", "primary_service": "BME Communities Services", "long": "-1.527018", "County": "West Yorkshire", "Street": "Cromwell Mount", "Postcode": "LS9 7ST", "HouseNo": "41-47", "address": "41-47 Cromwell Mount  Leeds, LS9 7ST", "lat": "53.802094"}, {"building": "Dyson Building, ground floor", "Town": "Leeds", "name": "Touchstone - Community Support Team", "District": "", "Comments": "", "primary_service": "Mental Health Services", "long": "-1.540884", "County": "West Yorkshire", "Street": "Buslingthorpe Lane", "Postcode": "LS7 2DB", "HouseNo": "", "address": " Buslingthorpe Lane  Leeds, LS7 2DB", "lat": "53.814338"}, {"building": "Cromwell Mount", "Town": "Leeds", "name": "Touchstone - East Leeds Health for All", "District": "", "Comments": "", "primary_service": "Health", "long": "-1.527018", "County": "West Yorkshire", "Street": "Lincoln Green", "Postcode": "LS9 7ST", "HouseNo": "41-47", "address": "41-47 Lincoln Green  Leeds, LS9 7ST", "lat": "53.802094"}, {"building": "Touchstone House", "Town": "Leeds", "name": "Touchstone - Housing Service", "District": "Beeston", "Comments": "", "primary_service": "Housing & Related Support", "long": "-1.547598", "County": "West Yorkshire", "Street": "Middleton Crescent", "Postcode": "LS11 6JU", "HouseNo": "4-Feb", "address": "40577 Middleton Crescent Beeston Leeds, LS11 6JU", "lat": "53.773894"}, {"building": "", "Town": "Leeds", "name": "Touchstone - IAPT", "District": "Ebor Gardens", "Comments": "", "primary_service": "Counselling and Therapy Services", "long": "-1.516904", "County": "West Yorkshire", "Street": "Hazlewood Drive", "Postcode": "LS9 7RE", "HouseNo": "179 - 181", "address": "179 - 181 Hazlewood Drive Ebor Gardens Leeds, LS9 7RE", "lat": "53.798308"}, {"building": "Dyson Building, ground floor", "Town": "Leeds", "name": "Touchstone - Personality Disorder Network", "District": "", "Comments": "", "primary_service": "Mental Health Services", "long": "-1.540884", "County": "West Yorkshire", "Street": "Buslingthorpe Lane", "Postcode": "LS7 2DB", "HouseNo": "", "address": " Buslingthorpe Lane  Leeds, LS7 2DB", "lat": "53.814338"}, {"building": "Dyson Building, ground floor", "Town": "Leeds", "name": "Touchstone - Self Directed Support", "District": "", "Comments": "", "primary_service": "Social & Community Care Services", "long": "-1.540884", "County": "West Yorkshire", "Street": "Buslingthorpe Lane", "Postcode": "LS7 2DB", "HouseNo": "", "address": " Buslingthorpe Lane  Leeds, LS7 2DB", "lat": "53.814338"}, {"building": "The Support Centre", "Town": "Leeds", "name": "Touchstone - Support Centre", "District": "Harehills", "Comments": "", "primary_service": "Mental Health Services", "long": "-1.521876", "County": "West Yorkshire", "Street": "Harehills Avenue", "Postcode": "LS8 4EX", "HouseNo": "53-55", "address": "53-55 Harehills Avenue Harehills Leeds, LS8 4EX", "lat": "53.81767"}, {"building": "Marquis House", "Town": "Leeds", "name": "Urban Sprawl", "District": "", "Comments": "", "primary_service": "Arts & Media", "long": "-1.536131", "County": "", "Street": "Eastgate", "Postcode": "LS2 7RD", "HouseNo": "33", "address": "33 Eastgate  Leeds, LS2 7RD", "lat": "53.799058"}, {"building": "The Vale Day Centre", "Town": "Leeds", "name": "Vale Day Centre Service Users Involvement Group", "District": "Hunslet", "Comments": "", "primary_service": "Mental Health Services", "long": "-1.528645", "County": "West Yorkshire", "Street": "Church Street", "Postcode": "LS10 2AP", "HouseNo": "", "address": " Church Street Hunslet Leeds, LS10 2AP", "lat": "53.778851"}, {"building": "", "Town": "Keighley", "name": "VERSA", "District": "", "Comments": "", "primary_service": "Counselling and Therapy Services", "long": "-1.909151", "County": "", "Street": "182 Skipton Road", "Postcode": "BD21 2SY", "HouseNo": "", "address": " 182 Skipton Road  Keighley, BD21 2SY", "lat": "53.872749"}, {"building": "", "Town": "Shipley", "name": "Victim Support Leeds", "District": "", "Comments": "", "primary_service": "Advice /Information Services", "long": "-1.782058", "County": "West Yorkshire", "Street": "Park View Court", "Postcode": "BD18 3DZ", "HouseNo": "7", "address": "7 Park View Court  Shipley, BD18 3DZ", "lat": "53.832057"}, {"building": "Joseph's Well", "Town": "Leeds", "name": "Volition", "District": "Westgate", "Comments": "", "primary_service": "Infrastructure", "long": "-1.556306", "County": "West Yorkshire", "Street": "Hanover Walk", "Postcode": "LS3 1AB", "HouseNo": "Suite 17D", "address": "Suite 17D Hanover Walk Westgate Leeds, LS3 1AB", "lat": "53.800982"}, {"building": "", "Town": "Wakefield", "name": "Well Women Centre", "District": "", "Comments": "", "primary_service": "Women", "long": "-1.493899", "County": "West Yorkshire", "Street": "24 Trinity Church Gate", "Postcode": "WF1 1TX", "HouseNo": "", "address": " 24 Trinity Church Gate  Wakefield, WF1 1TX", "lat": "53.680484"}, {"building": "Roscoe Methodist Church", "Town": "Leeds", "name": "West Indian Family Counselling Service", "District": "Chapeltown", "Comments": "church", "primary_service": "Social & Community Care Services", "long": "-1.531254", "County": "West Yorkshire", "Street": "Francis Street", "Postcode": "LS7 4BY", "HouseNo": "", "address": " Francis Street Chapeltown Leeds, LS7 4BY", "lat": "53.814373"}, {"building": "Brookland Towers", "Town": "Leeds", "name": "West Yorkshire Wellbeing", "District": "Seacroft", "Comments": "", "primary_service": "Health", "long": "-1.464138", "County": "West Yorkshire", "Street": "Brooklands Avenue", "Postcode": "LS14 6PL", "HouseNo": "12", "address": "12 Brooklands Avenue Seacroft Leeds, LS14 6PL", "lat": "53.820383"}, {"building": "c/o Community Alternatives Team", "Town": "Leeds", "name": "Wetherby Club Drop-in", "District": "", "Comments": "", "primary_service": "Mental Health Services", "long": "-1.528886", "County": "West Yorkshire", "Street": "Roundhay Road", "Postcode": "LS7 4AA", "HouseNo": "79", "address": "79 Roundhay Road  Leeds, LS7 4AA", "lat": "53.809853"}, {"building": "Oxford Chambers", "Town": "Leeds", "name": "Women's Counselling and Therapy Service", "District": "", "Comments": "", "primary_service": "Counselling and Therapy Services", "long": "-1.55065", "County": "West Yorkshire", "Street": "Oxford Place", "Postcode": "LS1 3AX", "HouseNo": "", "address": " Oxford Place  Leeds, LS1 3AX", "lat": "53.800066"}, {"building": "Bridge House", "Town": "Leeds", "name": "Womens Health Matters", "District": "", "Comments": "", "primary_service": "Women", "long": "-1.530411", "County": "West Yorkshire", "Street": "Balm Road", "Postcode": "LS10 2TP", "HouseNo": "", "address": " Balm Road  Leeds, LS10 2TP", "lat": "53.774274"}, {"building": "Brian Jackson House", "Town": "Huddersfield", "name": "Yorkshire Childrens Society Centre", "District": "", "Comments": "", "primary_service": "Counselling and Therapy Services", "long": "-1.786494", "County": "West Yorkshire", "Street": "New North Parade", "Postcode": "HD1 5JP", "HouseNo": "", "address": " New North Parade  Huddersfield, HD1 5JP", "lat": "53.647875"}, {"building": "", "Town": "Leeds", "name": "Yorkshire Mediation Services", "District": "", "Comments": "", "primary_service": "Mediation", "long": "-1.546263", "County": "", "Street": "Basinghall Street", "Postcode": "LS1 5JS", "HouseNo": "Butts Court", "address": "Butts Court Basinghall Street  Leeds, LS1 5JS", "lat": "53.79815"}, {"building": "", "Town": "Leeds", "name": "Yorkshire MESMAC", "District": "", "Comments": "PO box", "primary_service": "Sexual Health", "long": "", "County": "West Yorkshire", "Street": "PO Box 417", "Postcode": "LS1 5PN", "HouseNo": "", "address": " PO Box 417  Leeds, LS1 5PN", "lat": ""}, {"building": "", "Town": "Leeds", "name": "Yorkshire MESMAC - Counselling Service", "District": "", "Comments": "PO Box", "primary_service": "Counselling and Therapy Services", "long": "", "County": "", "Street": "PO Box 417", "Postcode": "LS1 5PN", "HouseNo": "", "address": " PO Box 417  Leeds, LS1 5PN", "lat": ""}, {"building": "Suite 11, Baden Place", "Town": "London", "name": "Young Minds", "District": "", "Comments": "Helpline", "primary_service": "Mental Health Services", "long": "-0.089083", "County": "", "Street": "Crosby Row", "Postcode": "SE1 1WY", "HouseNo": "", "address": " Crosby Row  London, SE1 1WY", "lat": "51.501712"}, {"building": "", "Town": "Wakefield", "name": "Your Voice (Wakefield)", "District": "", "Comments": "", "primary_service": "Mental Health Services", "long": "-1.501383", "County": "West Yorkshire", "Street": "King Street", "Postcode": "WF1 2SR", "HouseNo": "25", "address": "25 King Street  Wakefield, WF1 2SR", "lat": "53.683358"}, {"building": "", "Town": "Leeds", "name": "Zest Health for Life", "District": "Richmond Hill", "Comments": "", "primary_service": "Community Development", "long": "-1.522919", "County": "", "Street": "Upper Accommodation Road", "Postcode": "LS9 8RZ", "HouseNo": "21a", "address": "21a Upper Accommodation Road Richmond Hill Leeds, LS9 8RZ", "lat": "53.793025"}]}