{"subprimeLenders":[{"category": "Lender", "name": "The Money Shop", "long": "-1.517327", "Easting": "431876", "Address": " LS8 4HS", "lat": "53.817005", "Northing": "435744"}, {"category": "Lender", "name": "The Money Shop", "long": "-1.589574", "Easting": "427132", "Address": " LS12 3AB", "lat": "53.797365", "Northing": "433529"}, {"category": "Lender", "name": "The Money Shop", "long": "-1.626399", "Easting": "424698", "Address": " LS13 2ET", "lat": "53.811767", "Northing": "435118"}, {"category": "Lender", "name": "The Money Shop", "long": "-1.452392", "Easting": "436162", "Address": " LS15 7JX", "lat": "53.804341", "Northing": "434366"}, {"category": "Lender", "name": "The Money Shop", "long": "-1.628352", "Easting": "424639", "Address": " WF13 1AA", "lat": "53.691989", "Northing": "421791"}, {"category": "Lender", "name": "The Money Shop", "long": "-1.753149", "Easting": "416359", "Address": " BD1 1NF", "lat": "53.793355", "Northing": "433033"}, {"category": "Lender", "name": "The Money Shop", "long": "-1.498961", "Easting": "433190", "Address": " WF1 1HA", "lat": "53.683357", "Northing": "420883"}, {"category": "Lender", "name": "The Money Shop", "long": "-1.757156", "Easting": "416094", "Address": " BD1 3JS", "lat": "53.796114", "Northing": "433339"}, {"category": "Pawnbroker", "name": "H&T Pawnbrokers - Leeds", "long": "-1.540865", "Easting": "430341", "Address": " LS1 6DG", "lat": "53.796515", "Northing": "433454"}, {"category": "Pawnbroker", "name": "H & T Pawnbrokers", "long": "-1.540865", "Easting": "430341", "Address": " LS1 6DG", "lat": "53.796515", "Northing": "433454"}, {"category": "Pawnbroker", "name": "Herbert Brown Jewellers", "long": "-1.54095", "Easting": "430335", "Address": " LS1 6BY", "lat": "53.797108", "Northing": "433520"}, {"category": "Pawnbroker", "name": "Herbert Brown Jewellers", "long": "-1.544088", "Easting": "430125", "Address": " LS2 8NG", "lat": "53.801704", "Northing": "434030"}, {"category": "Pawnbroker", "name": "Convert 2 Cash", "long": "-1.541569", "Easting": "430292", "Address": " LS2 8JD", "lat": "53.800184", "Northing": "433862"}, {"category": "Pawnbroker", "name": "Herbert Brown", "long": "-1.541083", "Easting": "430325", "Address": " LS1 6PU", "lat": "53.798861", "Northing": "433715"}, {"category": "Pawnbroker", "name": "Herbert Brown Jewellers", "long": "-1.540538", "Easting": "430362", "Address": " LS1 6DS", "lat": "53.797295", "Northing": "433541"}, {"category": "Pawnbroker", "name": "Ramsdens", "long": "-1.601228", "Easting": "426397", "Address": " LS27 9BP", "lat": "53.745076", "Northing": "427707"}, {"category": "Pawnbroker", "name": "Ramsdens", "long": "-1.541569", "Easting": "430292", "Address": " LS2 8JD", "lat": "53.800184", "Northing": "433862"}, {"category": "Pawnbroker", "name": "Ramsdens 4 Cash", "long": "-1.54095", "Easting": "430335", "Address": " LS1 6BY", "lat": "53.797108", "Northing": "433520"}, {"category": "Pawnbroker", "name": "Poundworld", "long": "-1.54095", "Easting": "430335", "Address": " LS1 6BY", "lat": "53.797108", "Northing": "433520"}, {"category": "Pawnbroker", "name": "H&T Pawnbrokers - Leeds", "long": "-1.540865", "Easting": "430341", "Address": " LS1 6DG", "lat": "53.796515", "Northing": "433454"}, {"category": "Lender", "name": "Log Book Loans", "long": "-1.589574", "Easting": "427132", "Address": " LS12 3AB", "lat": "53.797365", "Northing": "433529"}, {"category": "Lender", "name": "Cash Direct", "long": "-1.509305", "Easting": "432410", "Address": " LS9 6AX", "lat": "53.809413", "Northing": "434903"}, {"category": "Lender", "name": "Cash Xpress", "long": "-1.560522", "Easting": "429061", "Address": " LS11 7PA", "lat": "53.77499", "Northing": "431051"}, {"category": "Lender", "name": "Loans 2 Go", "long": "-1.567109", "Easting": "428610", "Address": " LS3 1LH", "lat": "53.800001", "Northing": "433831"}, {"category": "Lender", "name": "Wisecash", "long": "-1.460618", "Easting": "435601", "Address": " LS14 1AB", "lat": "53.827163", "Northing": "436901"}, {"category": "Lender", "name": "Cash4UNow", "long": "-1.460618", "Easting": "435601", "Address": " LS14 1AB", "lat": "53.827163", "Northing": "436901"}, {"category": "Lender", "name": "Loans 2 Go", "long": "-1.446004", "Easting": "436580", "Address": " LS15 8EQ", "lat": "53.807484", "Northing": "434719"}, {"category": "Lender", "name": "Loans 2go", "long": "-1.446004", "Easting": "436580", "Address": " LS15 8EQ", "lat": "53.807484", "Northing": "434719"}, {"category": "Pawnbroker", "name": "H & T Pawnbrokers", "long": "-1.75643", "Easting": "416142", "Address": " BD1 3PZ", "lat": "53.795672", "Northing": "433290"}, {"category": "Pawnbroker", "name": "Browns Jewellers & Pawnbrokers Ltd", "long": "-1.450396", "Easting": "436291", "Address": " LS15 8DX", "lat": "53.807199", "Northing": "434685"}, {"category": "Pawnbroker", "name": "Browns Jewellers & Pawnbrokers Ltd", "long": "-1.450396", "Easting": "436291", "Address": " LS15 8DX", "lat": "53.807199", "Northing": "434685"}, {"category": "Lender", "name": "Loans 2 Go", "long": "-1.711193", "Easting": "419124", "Address": " BD4 8JH", "lat": "53.790987", "Northing": "432780"}, {"category": "Lender", "name": "Loans 2 Go", "long": "-1.500406", "Easting": "433093", "Address": " WF1 3BX", "lat": "53.68534", "Northing": "421103"}, {"category": "Lender", "name": "Loans 2 Go", "long": "-1.775955", "Easting": "414842", "Address": " BD17 7DH", "lat": "53.835167", "Northing": "437680"}, {"category": "Lender", "name": "Loans 2 Go", "long": "-1.775955", "Easting": "414842", "Address": " BD17 7DH", "lat": "53.835167", "Northing": "437680"}, {"category": "Lender", "name": "Automoney", "long": "-1.482872", "Easting": "434262", "Address": " WF1 5JF", "lat": "53.671784", "Northing": "419603"}, {"category": "Lender", "name": "Cheque Change", "long": "-1.628743", "Easting": "424613", "Address": " WF13 1QL", "lat": "53.692386", "Northing": "421835"}, {"category": "Pawnbroker", "name": "Tim Hogarth Pawn Brokers & Jewellers", "long": "-1.754525", "Easting": "416268", "Address": " BD1 1PZ", "lat": "53.794365", "Northing": "433145"}, {"category": "Lender", "name": "Cheque Centre", "long": "-1.626399", "Easting": "424698", "Address": " LS13 2ET", "lat": "53.811767", "Northing": "435118"}, {"category": "Lender", "name": "Cheque Centre", "long": "-1.450803", "Easting": "436265", "Address": " LS15 8ET", "lat": "53.806284", "Northing": "434583"}, {"category": "Lender", "name": "Cheque Centre", "long": "-1.628396", "Easting": "424636", "Address": " WF13 1QH", "lat": "53.692259", "Northing": "421821"}, {"category": "Lender", "name": "Cheque Centre", "long": "-1.578259", "Easting": "427955", "Address": " WF5 8BJ", "lat": "53.679689", "Northing": "420441"}, {"category": "Lender", "name": "Cheque Centre", "long": "-1.494446", "Easting": "433489", "Address": " WF1 1UT", "lat": "53.682331", "Northing": "420771"}, {"category": "Lender", "name": "Cheque Centre", "long": "-1.350977", "Easting": "442920", "Address": " WF10 1BA", "lat": "53.726528", "Northing": "425765"}, {"category": "Lender", "name": "The Cash Store", "long": "-1.545112", "Easting": "430062", "Address": " LS1 5DL", "lat": "53.795488", "Northing": "433338"}, {"category": "Pawnbroker", "name": "Convert 2 Cash", "long": "-1.541569", "Easting": "430292", "Address": " LS2 8JD", "lat": "53.800184", "Northing": "433862"}, {"category": "Pawnbroker", "name": "Cash Converters", "long": "-1.468107", "Easting": "435124", "Address": " LS14 6AX", "lat": "53.808007", "Northing": "434766"}, {"category": "Pawnbroker", "name": "Cash Converters", "long": "-1.589574", "Easting": "427132", "Address": " LS12 3AB", "lat": "53.797365", "Northing": "433529"}, {"category": "Pawnbroker", "name": "Cash Express", "long": "-1.561761", "Easting": "428979", "Address": " LS11 7LR", "lat": "53.77557", "Northing": "431115"}, {"category": "Pawnbroker", "name": "Cash Converters", "long": "-1.626399", "Easting": "424698", "Address": " LS13 2ET", "lat": "53.811767", "Northing": "435118"}, {"category": "Pawnbroker", "name": "Cash Converters", "long": "-1.545009", "Easting": "430083", "Address": " LS11 5HZ", "lat": "53.775552", "Northing": "431120"}, {"category": "Pawnbroker", "name": "Cash Converters", "long": "-1.526076", "Easting": "431311", "Address": " LS9 7SU", "lat": "53.802138", "Northing": "434086"}, {"category": "Pawnbroker", "name": "Cash Generators", "long": "-1.450803", "Easting": "436265", "Address": " LS15 8ET", "lat": "53.806284", "Northing": "434583"}, {"category": "Pawnbroker", "name": "Cash Generators", "long": "-1.54095", "Easting": "430335", "Address": " LS1 6BY", "lat": "53.797108", "Northing": "433520"}, {"category": "Pawnbroker", "name": "Cash Generators", "long": "-1.589761", "Easting": "427120", "Address": " LS12 1UX", "lat": "53.796898", "Northing": "433477"}, {"category": "Pawnbroker", "name": "Cash Conversions", "long": "-1.510538", "Easting": "432328", "Address": " LS9 6AA", "lat": "53.810452", "Northing": "435018"}, {"category": "Pawnbroker", "name": "Cash Converters", "long": "-1.516384", "Easting": "431938", "Address": " LS8 5RL", "lat": "53.817064", "Northing": "435751"}, {"category": "Pawnbroker", "name": "Cash Converters", "long": "-1.538485", "Easting": "430496", "Address": " LS2 7LY", "lat": "53.798995", "Northing": "433731"}, {"category": "Lender", "name": "Provident", "long": "-1.623526", "Easting": "424890", "Address": "LS13 2BW", "lat": "53.806896", "Northing": "434577"}, {"category": "Hire Purchase", "name": "Brighthouse", "long": "-1.544088", "Easting": "430125", "Address": "LS2 8NG", "lat": "53.801704", "Northing": "434030"}, {"category": "Hire Purchase", "name": "Brighthouse", "long": "-1.626399", "Easting": "424698", "Address": "LS13 2ET", "lat": "53.811767", "Northing": "435118"}, {"category": "Hire Purchase", "name": "Brighthouse", "long": "-1.450959", "Easting": "436255", "Address": "LS15 8EU", "lat": "53.806015", "Northing": "434553"}, {"category": "Hire Purchase", "name": "PerfectHome", "long": "-1.54095", "Easting": "430335", "Address": "LS1 6BY", "lat": "53.797108", "Northing": "433520"}, {"category": "Pawnbroker", "name": "Cash Express", "long": "-1.561761", "Easting": "428979", "Address": " LS11 7LR", "lat": "53.77557", "Northing": "431115"}, {"category": "Pawnbroker", "name": "Herbert Brown", "long": "-1.450959", "Easting": "436255", "Address": " LS15 8EU", "lat": "53.806015", "Northing": "434553"}, {"category": "Pawnbroker", "name": "Albemarle Bond", "long": "-1.626399", "Easting": "424698", "Address": " LS13 2ET", "lat": "53.811767", "Northing": "435118"}, {"category": "Pawnbroker", "name": "H&T Pawnbrokers", "long": "-1.540865", "Easting": "430341", "Address": "LS1 6DG", "lat": "53.796515", "Northing": "433454"}, {"category": "Pawnbroker", "name": "Cash Converters (UK)", "long": "-1.589574", "Easting": "427132", "Address": "LS12 3AB", "lat": "53.797365", "Northing": "433529"}, {"category": "Pawnbroker", "name": "Cash Express", "long": "-1.561761", "Easting": "428979", "Address": "LS11 7LR", "lat": "53.77557", "Northing": "431115"}, {"category": "Pawnbroker", "name": "M Waterman Jewellers", "long": "-1.541569", "Easting": "430292", "Address": "LS2 8JD", "lat": "53.800184", "Northing": "433862"}, {"category": "Pawnbroker", "name": "John Ramsden", "long": "-1.510048", "Easting": "432361", "Address": "LS9 7BG", "lat": "53.809461", "Northing": "434908"}, {"category": "Pawnbroker", "name": "Cash For Clothes Leeds", "long": "-1.556758", "Easting": "429309", "Address": "LS11", "lat": "53.775658", "Northing": "431127"}, {"category": "Pawnbroker", "name": "No 8", "long": "-1.546901", "Easting": "429945", "Address": "LS1 6DG", "lat": "53.794636", "Northing": "433242"}, {"category": "Pawnbroker", "name": "Cash Converters (UK)", "long": "-1.468107", "Easting": "435124", "Address": "LS14 6AX", "lat": "53.808007", "Northing": "434766"}, {"category": "Pawnbroker", "name": "Cash Converters (UK)", "long": "-1.626399", "Easting": "424698", "Address": "LS13 2ET", "lat": "53.811767", "Northing": "435118"}, {"category": "Hire Purchase", "name": "victoryonlinefamilyshoppiing.com", "long": "-1.554632", "Easting": "429424", "Address": "LS2 9EL", "lat": "53.811118", "Northing": "435073"}, {"category": "Lender", "name": "Cash4UNow", "long": "-1.462018", "Easting": "435511", "Address": "LS14 1EY", "lat": "53.824634", "Northing": "436619"}, {"category": "Lender", "name": "Leeds Payday Loans and Cash Advance", "long": "-1.55187", "Easting": "429613", "Address": " LS1 3AJ", "lat": "53.800996", "Northing": "433948"}]}